{
   "type": "FeatureCollection",
   "features": [
  {
    "type": "Feature",
    "geometry": {
       "type": "Point",
       "coordinates":  [ 13.52865,52.48706 ]
    },
    "properties": {
    "id":"_00l734zv4",
    "artdtsch":"Birken-Pappel",
    "gattungdeutsch":"PAPPEL",
    "strname":"Rheingoldstraße",
    "hausnr":"45",
    "standortnr":"31SB23",
    "pflanzjahr":1965,
    "standalter":"54",
    "bezirk":"Lichtenberg",
    "wassermenge":25,
    "wassersumme":60,
    "anzahlG":3
    }
  },
  {
    "type": "Feature",
    "geometry": {
       "type": "Point",
       "coordinates":  [ 13.33245,52.44032 ]
    },
    "properties": {
    "id":"_013bn7mt5",
    "artdtsch":"Spitz-Ahorn",
    "gattungdeutsch":"AHORN",
    "strname":"Calandrellistraße",
    "hausnr":"ggü.19",
    "standortnr":"830",
    "pflanzjahr":2013,
    "standalter":"6",
    "bezirk":"Steglitz-Zehlendorf",
    "wassermenge":25,
    "wassersumme":100,
    "anzahlG":4
    }
  },
  {
    "type": "Feature",
    "geometry": {
       "type": "Point",
       "coordinates":  [ 13.36696,52.50034 ]
    },
    "properties": {
    "id":"_01b8pwi8h",
    "artdtsch":"Spitz-Ahorn",
    "gattungdeutsch":"AHORN",
    "strname":"Pohlstraße",
    "hausnr":"35",
    "standortnr":"219620",
    "pflanzjahr":2010,
    "standalter":"9",
    "bezirk":"Mitte",
    "wassermenge":10,
    "wassersumme":20,
    "anzahlG":2
    }
  },
  {
    "type": "Feature",
    "geometry": {
       "type": "Point",
       "coordinates":  [ 13.37515,52.55373 ]
    },
    "properties": {
    "id":"_01e1gmep9",
    "artdtsch":"Krim-Linde",
    "gattungdeutsch":"LINDE",
    "strname":"Exerzierstraße",
    "hausnr":"11",
    "standortnr":"30588",
    "pflanzjahr":2003,
    "standalter":"16",
    "bezirk":"Mitte",
    "wassermenge":50,
    "wassersumme":150,
    "anzahlG":3
    }
  },
  {
    "type": "Feature",
    "geometry": {
       "type": "Point",
       "coordinates":  [ 13.43166,52.49144 ]
    },
    "properties": {
    "id":"_01jcl3rr4",
    "artdtsch":"Robinie",
    "gattungdeutsch":"ROBINIE",
    "strname":"Manitiusstraße",
    "hausnr":"6",
    "standortnr":"2931",
    "pflanzjahr":2004,
    "standalter":"15",
    "bezirk":"Neukölln",
    "wassermenge":50,
    "wassersumme":120,
    "anzahlG":4
    }
  },
  {
    "type": "Feature",
    "geometry": {
       "type": "Point",
       "coordinates":  [ 13.33101,52.4651 ]
    },
    "properties": {
    "id":"_02b1wm4xq",
    "artdtsch":"Sommer-Linde",
    "gattungdeutsch":"LINDE",
    "strname":"Peschkestraße",
    "hausnr":"6",
    "standortnr":"003432",
    "pflanzjahr":1980,
    "standalter":"39",
    "bezirk":"Steglitz-Zehlendorf",
    "wassermenge":10,
    "wassersumme":770,
    "anzahlG":66
    }
  },
  {
    "type": "Feature",
    "geometry": {
       "type": "Point",
       "coordinates":  [ 13.38766,52.53041 ]
    },
    "properties": {
    "id":"_02phtjem2",
    "artdtsch":"Weidenblättrige Birne",
    "gattungdeutsch":"BIRNE",
    "strname":"Schlegelstraße",
    "hausnr":"12",
    "standortnr":"191600",
    "pflanzjahr":1998,
    "standalter":"21",
    "bezirk":"Mitte",
    "wassermenge":50,
    "wassersumme":50,
    "anzahlG":1
    }
  },
  {
    "type": "Feature",
    "geometry": {
       "type": "Point",
       "coordinates":  [ 13.42913,52.50086 ]
    },
    "properties": {
    "id":"_02qnujqgt",
    "artdtsch":"Echte Mehlbeere",
    "gattungdeutsch":"MEHLBEERE",
    "strname":"Waldemarstraße",
    "hausnr":"118",
    "standortnr":"04669",
    "pflanzjahr":1953,
    "standalter":"66",
    "bezirk":"Friedrichshain-Kreuzberg",
    "wassermenge":50,
    "wassersumme":50,
    "anzahlG":1
    }
  },
  {
    "type": "Feature",
    "geometry": {
       "type": "Point",
       "coordinates":  [ 13.34376,52.49071 ]
    },
    "properties": {
    "id":"_02wmcyq3w",
    "artdtsch":"Sommer-Eiche, Stiel-Eiche",
    "gattungdeutsch":"EICHE",
    "strname":"Berchtesgadener Straße",
    "hausnr":"34",
    "standortnr":"17650",
    "pflanzjahr":1996,
    "standalter":"23",
    "bezirk":"Tempelhof-Schöneberg",
    "wassermenge":50,
    "wassersumme":50,
    "anzahlG":1
    }
  },
  {
    "type": "Feature",
    "geometry": {
       "type": "Point",
       "coordinates":  [ 13.30722,52.4177 ]
    },
    "properties": {
    "id":"_02z9hlxyd",
    "artdtsch":"Winter-Linde",
    "gattungdeutsch":"LINDE",
    "strname":"Schwatlostraße",
    "hausnr":"17",
    "standortnr":"4075",
    "pflanzjahr":1987,
    "standalter":"32",
    "bezirk":"Steglitz-Zehlendorf",
    "wassermenge":25,
    "wassersumme":25,
    "anzahlG":1
    }
  },
  {
    "type": "Feature",
    "geometry": {
       "type": "Point",
       "coordinates":  [ 13.30896,52.44753 ]
    },
    "properties": {
    "id":"_02zhpy38p",
    "artdtsch":"Winter-Linde 'Greenspire'",
    "gattungdeutsch":"LINDE",
    "strname":"Gardeschützenweg",
    "hausnr":"50",
    "standortnr":"001473",
    "pflanzjahr":2015,
    "standalter":"4",
    "bezirk":"Steglitz-Zehlendorf",
    "wassermenge":50,
    "wassersumme":50,
    "anzahlG":1
    }
  },
  {
    "type": "Feature",
    "geometry": {
       "type": "Point",
       "coordinates":  [ 13.31101,52.62184 ]
    },
    "properties": {
    "id":"_036vbh4xv",
    "artdtsch":"Krim-Linde",
    "gattungdeutsch":"LINDE",
    "strname":"Roedernstraße",
    "hausnr":"13",
    "standortnr":"03745-Str",
    "pflanzjahr":1955,
    "standalter":"64",
    "bezirk":"Reinickendorf",
    "wassermenge":25,
    "wassersumme":75,
    "anzahlG":3
    }
  },
  {
    "type": "Feature",
    "geometry": {
       "type": "Point",
       "coordinates":  [ 13.34246,52.48833 ]
    },
    "properties": {
    "id":"_03hdq1iv0",
    "artdtsch":"Oxelbeere, Schwedische Mehlbeere",
    "gattungdeutsch":"MEHLBEERE",
    "strname":"Münchener Straße",
    "hausnr":"31",
    "standortnr":"17840",
    "pflanzjahr":2007,
    "standalter":"12",
    "bezirk":"Tempelhof-Schöneberg",
    "wassermenge":25,
    "wassersumme":25,
    "anzahlG":1
    }
  },
  {
    "type": "Feature",
    "geometry": {
       "type": "Point",
       "coordinates":  [ 13.45798,52.52291 ]
    },
    "properties": {
    "id":"_03vg9bw9p",
    "artdtsch":"Rotblühende Rosskastanie",
    "gattungdeutsch":"ROSSKASTANIE",
    "strname":"unbekannte Straße",
    "hausnr":"unbekannte Nummer",
    "standortnr":"80101",
    "pflanzjahr":2007,
    "standalter":"12",
    "bezirk":"Pankow",
    "wassermenge":25,
    "wassersumme":35,
    "anzahlG":2
    }
  },
  {
    "type": "Feature",
    "geometry": {
       "type": "Point",
       "coordinates":  [ 13.34213,52.49734 ]
    },
    "properties": {
    "id":"_04augqyv9",
    "artdtsch":"Silber-Linde",
    "gattungdeutsch":"LINDE",
    "strname":"Geisbergstraße",
    "hausnr":"9",
    "standortnr":"17876",
    "pflanzjahr":1992,
    "standalter":"27",
    "bezirk":"Tempelhof-Schöneberg",
    "wassermenge":10,
    "wassersumme":10,
    "anzahlG":1
    }
  },
  {
    "type": "Feature",
    "geometry": {
       "type": "Point",
       "coordinates":  [ 13.30352,52.51472 ]
    },
    "properties": {
    "id":"_04daazmfq",
    "artdtsch":"Oxelbeere, Schwedische Mehlbeere",
    "gattungdeutsch":"MEHLBEERE",
    "strname":"Thrasoltstraße",
    "hausnr":"24",
    "standortnr":"04481",
    "pflanzjahr":1987,
    "standalter":"32",
    "bezirk":"Charlottenburg-Wilmersdorf",
    "wassermenge":10,
    "wassersumme":10,
    "anzahlG":1
    }
  },
  {
    "type": "Feature",
    "geometry": {
       "type": "Point",
       "coordinates":  [ 13.33882,52.52387 ]
    },
    "properties": {
    "id":"_04gn9czjf",
    "artdtsch":"Säulen-Weiss-Dorn",
    "gattungdeutsch":"WEIßDORN",
    "strname":"Essener Straße",
    "hausnr":"10",
    "standortnr":"224320",
    "pflanzjahr":2013,
    "standalter":"6",
    "bezirk":"Mitte",
    "wassermenge":10,
    "wassersumme":50,
    "anzahlG":5
    }
  },
  {
    "type": "Feature",
    "geometry": {
       "type": "Point",
       "coordinates":  [ 13.51773,52.46431 ]
    },
    "properties": {
    "id":"_04rmies2n",
    "artdtsch":"Robinie",
    "gattungdeutsch":"ROBINIE",
    "strname":"unbekannte Straße",
    "hausnr":"unbekannte Nummer",
    "standortnr":"090061",
    "pflanzjahr":1953,
    "standalter":"66",
    "bezirk":"Treptow-Köpenick",
    "wassermenge":25,
    "wassersumme":25,
    "anzahlG":1
    }
  },
  {
    "type": "Feature",
    "geometry": {
       "type": "Point",
       "coordinates":  [ 13.22637,52.58684 ]
    },
    "properties": {
    "id":"_04trbjphq",
    "artdtsch":"Pyramiden-Eiche",
    "gattungdeutsch":"EICHE",
    "strname":"Sandhauser Straße",
    "hausnr":"10",
    "standortnr":"03884-Str",
    "pflanzjahr":2018,
    "standalter":"1",
    "bezirk":"Reinickendorf",
    "wassermenge":25,
    "wassersumme":75,
    "anzahlG":2
    }
  },
  {
    "type": "Feature",
    "geometry": {
       "type": "Point",
       "coordinates":  [ 13.46231,52.54901 ]
    },
    "properties": {
    "id":"_058i9vpka",
    "artdtsch":"Winter-Linde 'Greenspire'",
    "gattungdeutsch":"LINDE",
    "strname":"Solonplatz",
    "hausnr":"unbekannte Nummer",
    "standortnr":"42719",
    "pflanzjahr":2002,
    "standalter":"17",
    "bezirk":"Pankow",
    "wassermenge":25,
    "wassersumme":160,
    "anzahlG":10
    }
  },
  {
    "type": "Feature",
    "geometry": {
       "type": "Point",
       "coordinates":  [ 13.3347,52.46614 ]
    },
    "properties": {
    "id":"_05a68tkij",
    "artdtsch":"Rotblühende Rosskastanie",
    "gattungdeutsch":"ROSSKASTANIE",
    "strname":"Fregestraße",
    "hausnr":"47",
    "standortnr":"1364",
    "pflanzjahr":1986,
    "standalter":"33",
    "bezirk":"Steglitz-Zehlendorf",
    "wassermenge":25,
    "wassersumme":105,
    "anzahlG":5
    }
  },
  {
    "type": "Feature",
    "geometry": {
       "type": "Point",
       "coordinates":  [ 13.33425,52.48846 ]
    },
    "properties": {
    "id":"_05lvmfaqx",
    "artdtsch":"Amerikanische Linde",
    "gattungdeutsch":"LINDE",
    "strname":"Helmstedter Straße",
    "hausnr":"15",
    "standortnr":"01932",
    "pflanzjahr":1986,
    "standalter":"33",
    "bezirk":"Charlottenburg-Wilmersdorf",
    "wassermenge":5,
    "wassersumme":5,
    "anzahlG":1
    }
  },
  {
    "type": "Feature",
    "geometry": {
       "type": "Point",
       "coordinates":  [ 13.41584,52.49271 ]
    },
    "properties": {
    "id":"_05qydx69h",
    "artdtsch":"Ahornblättrige Platane",
    "gattungdeutsch":"PLATANE",
    "strname":"Dieffenbachstraße",
    "hausnr":"unbekannte Nummer",
    "standortnr":"00967",
    "pflanzjahr":1949,
    "standalter":"70",
    "bezirk":"Friedrichshain-Kreuzberg",
    "wassermenge":5,
    "wassersumme":30,
    "anzahlG":2
    }
  },
  {
    "type": "Feature",
    "geometry": {
       "type": "Point",
       "coordinates":  [ 13.35569,52.49799 ]
    },
    "properties": {
    "id":"_05y508eqd",
    "artdtsch":"Ahornblättrige Platane",
    "gattungdeutsch":"PLATANE",
    "strname":"Nollendorfstraße",
    "hausnr":"2",
    "standortnr":"17715",
    "pflanzjahr":1971,
    "standalter":"48",
    "bezirk":"Tempelhof-Schöneberg",
    "wassermenge":10,
    "wassersumme":55,
    "anzahlG":4
    }
  },
  {
    "type": "Feature",
    "geometry": {
       "type": "Point",
       "coordinates":  [ 13.34726,52.54694 ]
    },
    "properties": {
    "id":"_06vwh0ibn",
    "artdtsch":"Hainbuche",
    "gattungdeutsch":"HAINBUCHE",
    "strname":"Lütticher Straße",
    "hausnr":"3",
    "standortnr":"372700",
    "pflanzjahr":1982,
    "standalter":"37",
    "bezirk":"Mitte",
    "wassermenge":50,
    "wassersumme":150,
    "anzahlG":3
    }
  },
  {
    "type": "Feature",
    "geometry": {
       "type": "Point",
       "coordinates":  [ 13.4953,52.51638 ]
    },
    "properties": {
    "id":"_06z8btxny",
    "artdtsch":"Spitz-Ahorn",
    "gattungdeutsch":"AHORN",
    "strname":"unbekannte Straße",
    "hausnr":"unbekannte Nummer",
    "standortnr":"21SH04",
    "pflanzjahr":1972,
    "standalter":"47",
    "bezirk":"Lichtenberg",
    "wassermenge":25,
    "wassersumme":75,
    "anzahlG":2
    }
  },
  {
    "type": "Feature",
    "geometry": {
       "type": "Point",
       "coordinates":  [ 13.44983,52.44798 ]
    },
    "properties": {
    "id":"_076q78cix",
    "artdtsch":"Berg-Ahorn, Weiss-Ahorn",
    "gattungdeutsch":"AHORN",
    "strname":"Fritz-Reuter-Allee",
    "hausnr":"48",
    "standortnr":"1414",
    "pflanzjahr":2012,
    "standalter":"7",
    "bezirk":"Neukölln",
    "wassermenge":25,
    "wassersumme":25,
    "anzahlG":1
    }
  },
  {
    "type": "Feature",
    "geometry": {
       "type": "Point",
       "coordinates":  [ 13.44799,52.4927 ]
    },
    "properties": {
    "id":"_07d8l3fj0",
    "artdtsch":"Winter-Linde 'Greenspire'",
    "gattungdeutsch":"LINDE",
    "strname":"Kiefholzstraße",
    "hausnr":"unbekannte Nummer",
    "standortnr":"10294",
    "pflanzjahr":2000,
    "standalter":"19",
    "bezirk":"Treptow-Köpenick",
    "wassermenge":5,
    "wassersumme":170,
    "anzahlG":8
    }
  },
  {
    "type": "Feature",
    "geometry": {
       "type": "Point",
       "coordinates":  [ 13.4693,52.51745 ]
    },
    "properties": {
    "id":"_07tclwgim",
    "artdtsch":"Rot-/Weißdorn",
    "gattungdeutsch":"WEIßDORN",
    "strname":"unbekannte Straße",
    "hausnr":"unbekannte Nummer",
    "standortnr":"60114",
    "pflanzjahr":1979,
    "standalter":"40",
    "bezirk":"Friedrichshain-Kreuzberg",
    "wassermenge":10,
    "wassersumme":160,
    "anzahlG":4
    }
  },
  {
    "type": "Feature",
    "geometry": {
       "type": "Point",
       "coordinates":  [ 13.28063,52.48935 ]
    },
    "properties": {
    "id":"_07tzl915l",
    "artdtsch":"Gefülltblühende Rosskastanie",
    "gattungdeutsch":"ROSSKASTANIE",
    "strname":"Bismarckallee",
    "hausnr":"GEGÜ.13",
    "standortnr":"00582-B1",
    "pflanzjahr":1979,
    "standalter":"40",
    "bezirk":"Charlottenburg-Wilmersdorf",
    "wassermenge":25,
    "wassersumme":25,
    "anzahlG":1
    }
  },
  {
    "type": "Feature",
    "geometry": {
       "type": "Point",
       "coordinates":  [ 13.43816,52.46677 ]
    },
    "properties": {
    "id":"_081g77wmk",
    "artdtsch":"Linde",
    "gattungdeutsch":"LINDE",
    "strname":"Bruno-Bauer-Straße",
    "hausnr":"2",
    "standortnr":"",
    "pflanzjahr":1982,
    "standalter":"37",
    "bezirk":"Neukölln",
    "wassermenge":50,
    "wassersumme":50,
    "anzahlG":1
    }
  },
  {
    "type": "Feature",
    "geometry": {
       "type": "Point",
       "coordinates":  [ 13.33747,52.48678 ]
    },
    "properties": {
    "id":"_082rqo5md",
    "artdtsch":"Echter Rotdorn",
    "gattungdeutsch":"WEIßDORN",
    "strname":"Bozener Straße",
    "hausnr":"9",
    "standortnr":"17895",
    "pflanzjahr":1985,
    "standalter":"34",
    "bezirk":"Tempelhof-Schöneberg",
    "wassermenge":50,
    "wassersumme":50,
    "anzahlG":1
    }
  },
  {
    "type": "Feature",
    "geometry": {
       "type": "Point",
       "coordinates":  [ 13.47111,52.51419 ]
    },
    "properties": {
    "id":"_085p0g3uk",
    "artdtsch":"Kaiser-Linde",
    "gattungdeutsch":"LINDE",
    "strname":"Frankfurter Allee",
    "hausnr":"unbekannte Nummer",
    "standortnr":"FRANKFUR",
    "pflanzjahr":1998,
    "standalter":"21",
    "bezirk":"Friedrichshain-Kreuzberg",
    "wassermenge":25,
    "wassersumme":235,
    "anzahlG":17
    }
  },
  {
    "type": "Feature",
    "geometry": {
       "type": "Point",
       "coordinates":  [ 13.35741,52.52096 ]
    },
    "properties": {
    "id":"_089aeb6lq",
    "artdtsch":"Oxelbeere, Schwedische Mehlbeere",
    "gattungdeutsch":"MEHLBEERE",
    "strname":"Flemingstraße",
    "hausnr":"5",
    "standortnr":"241500",
    "pflanzjahr":1985,
    "standalter":"34",
    "bezirk":"Mitte",
    "wassermenge":10,
    "wassersumme":10,
    "anzahlG":1
    }
  },
  {
    "type": "Feature",
    "geometry": {
       "type": "Point",
       "coordinates":  [ 13.34678,52.48751 ]
    },
    "properties": {
    "id":"_08iaqjvj3",
    "artdtsch":"Sand-Birke",
    "gattungdeutsch":"BIRKE",
    "strname":"unbekannte Straße",
    "hausnr":"unbekannte Nummer",
    "standortnr":"17235.0",
    "pflanzjahr":1984,
    "standalter":"35",
    "bezirk":"Tempelhof-Schöneberg",
    "wassermenge":50,
    "wassersumme":200,
    "anzahlG":4
    }
  },
  {
    "type": "Feature",
    "geometry": {
       "type": "Point",
       "coordinates":  [ 13.29839,52.43659 ]
    },
    "properties": {
    "id":"_08jep54wb",
    "artdtsch":"Spitz-Ahorn",
    "gattungdeutsch":"AHORN",
    "strname":"Holbeinstraße",
    "hausnr":"1",
    "standortnr":"002061",
    "pflanzjahr":1981,
    "standalter":"38",
    "bezirk":"Steglitz-Zehlendorf",
    "wassermenge":25,
    "wassersumme":25,
    "anzahlG":1
    }
  },
  {
    "type": "Feature",
    "geometry": {
       "type": "Point",
       "coordinates":  [ 13.36907,52.49003 ]
    },
    "properties": {
    "id":"_08tqdlu0i",
    "artdtsch":"Sommer-Linde",
    "gattungdeutsch":"LINDE",
    "strname":"Hochkirchstraße",
    "hausnr":"13",
    "standortnr":"17678",
    "pflanzjahr":1965,
    "standalter":"54",
    "bezirk":"Tempelhof-Schöneberg",
    "wassermenge":10,
    "wassersumme":10,
    "anzahlG":1
    }
  },
  {
    "type": "Feature",
    "geometry": {
       "type": "Point",
       "coordinates":  [ 13.44758,52.49287 ]
    },
    "properties": {
    "id":"_09atbs6l0",
    "artdtsch":"Winter-Linde",
    "gattungdeutsch":"LINDE",
    "strname":"Kiefholzstraße",
    "hausnr":"unbekannte Nummer",
    "standortnr":"010294",
    "pflanzjahr":1952,
    "standalter":"67",
    "bezirk":"Treptow-Köpenick",
    "wassermenge":5,
    "wassersumme":20,
    "anzahlG":4
    }
  },
  {
    "type": "Feature",
    "geometry": {
       "type": "Point",
       "coordinates":  [ 13.46129,52.54851 ]
    },
    "properties": {
    "id":"_09gv7ydd6",
    "artdtsch":"Spitz-Ahorn",
    "gattungdeutsch":"AHORN",
    "strname":"Meyerbeerstraße",
    "hausnr":"unbekannte Nummer",
    "standortnr":"41957",
    "pflanzjahr":1991,
    "standalter":"28",
    "bezirk":"Pankow",
    "wassermenge":25,
    "wassersumme":25,
    "anzahlG":1
    }
  },
  {
    "type": "Feature",
    "geometry": {
       "type": "Point",
       "coordinates":  [ 13.43715,52.49051 ]
    },
    "properties": {
    "id":"_09rjx9inu",
    "artdtsch":"Winter-Linde",
    "gattungdeutsch":"LINDE",
    "strname":"Maybachufer",
    "hausnr":"0",
    "standortnr":"3021",
    "pflanzjahr":1995,
    "standalter":"24",
    "bezirk":"Neukölln",
    "wassermenge":50,
    "wassersumme":455,
    "anzahlG":12
    }
  },
  {
    "type": "Feature",
    "geometry": {
       "type": "Point",
       "coordinates":  [ 13.5317,52.49068 ]
    },
    "properties": {
    "id":"_0a9pydq8k",
    "artdtsch":"Winter-Linde",
    "gattungdeutsch":"LINDE",
    "strname":"Rudolf-Grosse-Straße",
    "hausnr":"unbekannte Nummer",
    "standortnr":"31SB31",
    "pflanzjahr":1965,
    "standalter":"54",
    "bezirk":"Lichtenberg",
    "wassermenge":50,
    "wassersumme":200,
    "anzahlG":4
    }
  },
  {
    "type": "Feature",
    "geometry": {
       "type": "Point",
       "coordinates":  [ 13.42038,52.50582 ]
    },
    "properties": {
    "id":"_0ah3lj6lm",
    "artdtsch":"Holländische Linde",
    "gattungdeutsch":"LINDE",
    "strname":"Engeldamm",
    "hausnr":"70",
    "standortnr":"172100",
    "pflanzjahr":1992,
    "standalter":"27",
    "bezirk":"Mitte",
    "wassermenge":50,
    "wassersumme":100,
    "anzahlG":2
    }
  },
  {
    "type": "Feature",
    "geometry": {
       "type": "Point",
       "coordinates":  [ 13.31418,52.50747 ]
    },
    "properties": {
    "id":"_0ay5asa8z",
    "artdtsch":"Winter-Linde",
    "gattungdeutsch":"LINDE",
    "strname":"Leibnizstraße",
    "hausnr":"31",
    "standortnr":"02732",
    "pflanzjahr":1986,
    "standalter":"33",
    "bezirk":"Charlottenburg-Wilmersdorf",
    "wassermenge":50,
    "wassersumme":150,
    "anzahlG":3
    }
  },
  {
    "type": "Feature",
    "geometry": {
       "type": "Point",
       "coordinates":  [ 13.46504,52.51822 ]
    },
    "properties": {
    "id":"_0b4ai70hy",
    "artdtsch":"Berg-Ahorn, Weiss-Ahorn",
    "gattungdeutsch":"AHORN",
    "strname":"unbekannte Straße",
    "hausnr":"unbekannte Nummer",
    "standortnr":"60114",
    "pflanzjahr":1980,
    "standalter":"39",
    "bezirk":"Friedrichshain-Kreuzberg",
    "wassermenge":50,
    "wassersumme":300,
    "anzahlG":6
    }
  },
  {
    "type": "Feature",
    "geometry": {
       "type": "Point",
       "coordinates":  [ 13.31441,52.49564 ]
    },
    "properties": {
    "id":"_0baoa0xuf",
    "artdtsch":"Silber-Linde",
    "gattungdeutsch":"LINDE",
    "strname":"Zähringerstraße",
    "hausnr":"35",
    "standortnr":"04983",
    "pflanzjahr":1925,
    "standalter":"94",
    "bezirk":"Charlottenburg-Wilmersdorf",
    "wassermenge":25,
    "wassersumme":105,
    "anzahlG":9
    }
  },
  {
    "type": "Feature",
    "geometry": {
       "type": "Point",
       "coordinates":  [ 13.35531,52.49806 ]
    },
    "properties": {
    "id":"_0bdydzdez",
    "artdtsch":"Ahornblättrige Platane",
    "gattungdeutsch":"PLATANE",
    "strname":"Nollendorfstraße",
    "hausnr":"4",
    "standortnr":"17715",
    "pflanzjahr":1964,
    "standalter":"55",
    "bezirk":"Tempelhof-Schöneberg",
    "wassermenge":10,
    "wassersumme":10,
    "anzahlG":1
    }
  },
  {
    "type": "Feature",
    "geometry": {
       "type": "Point",
       "coordinates":  [ 13.33165,52.46488 ]
    },
    "properties": {
    "id":"_0btudcb3j",
    "artdtsch":"Sommer-Linde",
    "gattungdeutsch":"LINDE",
    "strname":"Peschkestraße",
    "hausnr":"8",
    "standortnr":"003432",
    "pflanzjahr":1991,
    "standalter":"28",
    "bezirk":"Steglitz-Zehlendorf",
    "wassermenge":10,
    "wassersumme":40,
    "anzahlG":4
    }
  },
  {
    "type": "Feature",
    "geometry": {
       "type": "Point",
       "coordinates":  [ 13.31137,52.50789 ]
    },
    "properties": {
    "id":"_0by6os3q4",
    "artdtsch":"Pyramiden-Eiche",
    "gattungdeutsch":"EICHE",
    "strname":"Pestalozzistraße",
    "hausnr":"unbekannte Nummer",
    "standortnr":"03433",
    "pflanzjahr":1981,
    "standalter":"38",
    "bezirk":"Charlottenburg-Wilmersdorf",
    "wassermenge":25,
    "wassersumme":415,
    "anzahlG":19
    }
  },
  {
    "type": "Feature",
    "geometry": {
       "type": "Point",
       "coordinates":  [ 13.27811,52.63452 ]
    },
    "properties": {
    "id":"_0c6yrlpow",
    "artdtsch":"Echte Mehlbeere",
    "gattungdeutsch":"MEHLBEERE",
    "strname":"Münchener Straße",
    "hausnr":"3",
    "standortnr":"03151-Str",
    "pflanzjahr":1968,
    "standalter":"51",
    "bezirk":"Reinickendorf",
    "wassermenge":50,
    "wassersumme":100,
    "anzahlG":2
    }
  },
  {
    "type": "Feature",
    "geometry": {
       "type": "Point",
       "coordinates":  [ 13.45243,52.47448 ]
    },
    "properties": {
    "id":"_0ckgll3uo",
    "artdtsch":"Berg-Ahorn, Weiss-Ahorn",
    "gattungdeutsch":"AHORN",
    "strname":"Brusendorfer Straße",
    "hausnr":"24",
    "standortnr":"772",
    "pflanzjahr":1985,
    "standalter":"34",
    "bezirk":"Neukölln",
    "wassermenge":50,
    "wassersumme":150,
    "anzahlG":3
    }
  },
  {
    "type": "Feature",
    "geometry": {
       "type": "Point",
       "coordinates":  [ 13.32666,52.46705 ]
    },
    "properties": {
    "id":"_0ctyc0uvr",
    "artdtsch":"Gemeine Rosskastanie",
    "gattungdeutsch":"ROSSKASTANIE",
    "strname":"Fröaufstraße",
    "hausnr":"7",
    "standortnr":"17884",
    "pflanzjahr":1987,
    "standalter":"32",
    "bezirk":"Tempelhof-Schöneberg",
    "wassermenge":50,
    "wassersumme":100,
    "anzahlG":5
    }
  },
  {
    "type": "Feature",
    "geometry": {
       "type": "Point",
       "coordinates":  [ 13.51587,52.45474 ]
    },
    "properties": {
    "id":"_0ddzwedj2",
    "artdtsch":"Hainbuche",
    "gattungdeutsch":"HAINBUCHE",
    "strname":"Schnellerstraße",
    "hausnr":"unbekannte Nummer",
    "standortnr":"050254",
    "pflanzjahr":2019,
    "standalter":"0",
    "bezirk":"Treptow-Köpenick",
    "wassermenge":25,
    "wassersumme":25,
    "anzahlG":1
    }
  },
  {
    "type": "Feature",
    "geometry": {
       "type": "Point",
       "coordinates":  [ 13.4255,52.54789 ]
    },
    "properties": {
    "id":"_0dic7zi8v",
    "artdtsch":"Spitz-Ahorn 'Cleveland'",
    "gattungdeutsch":"AHORN",
    "strname":"Dunckerstraße",
    "hausnr":"unbekannte Nummer",
    "standortnr":"40647",
    "pflanzjahr":2000,
    "standalter":"19",
    "bezirk":"Pankow",
    "wassermenge":10,
    "wassersumme":10,
    "anzahlG":1
    }
  },
  {
    "type": "Feature",
    "geometry": {
       "type": "Point",
       "coordinates":  [ 13.36707,52.50118 ]
    },
    "properties": {
    "id":"_0dihdt89g",
    "artdtsch":"Spitz-Ahorn",
    "gattungdeutsch":"AHORN",
    "strname":"Körnerstraße",
    "hausnr":"18",
    "standortnr":"243200",
    "pflanzjahr":2010,
    "standalter":"9",
    "bezirk":"Mitte",
    "wassermenge":25,
    "wassersumme":25,
    "anzahlG":1
    }
  },
  {
    "type": "Feature",
    "geometry": {
       "type": "Point",
       "coordinates":  [ 13.42604,52.4909 ]
    },
    "properties": {
    "id":"_0dydona3y",
    "artdtsch":"Winter-Linde",
    "gattungdeutsch":"LINDE",
    "strname":"Hobrechtstraße",
    "hausnr":"58",
    "standortnr":"2012",
    "pflanzjahr":1980,
    "standalter":"39",
    "bezirk":"Neukölln",
    "wassermenge":25,
    "wassersumme":25,
    "anzahlG":1
    }
  },
  {
    "type": "Feature",
    "geometry": {
       "type": "Point",
       "coordinates":  [ 13.42671,52.46382 ]
    },
    "properties": {
    "id":"_0e2ln1d1t",
    "artdtsch":"Robinie",
    "gattungdeutsch":"ROBINIE",
    "strname":"Mariendorfer Weg",
    "hausnr":"48",
    "standortnr":"2961",
    "pflanzjahr":2000,
    "standalter":"19",
    "bezirk":"Neukölln",
    "wassermenge":5,
    "wassersumme":20,
    "anzahlG":3
    }
  },
  {
    "type": "Feature",
    "geometry": {
       "type": "Point",
       "coordinates":  [ 13.45776,52.54674 ]
    },
    "properties": {
    "id":"_0e5v4bb1t",
    "artdtsch":"Winter-Linde",
    "gattungdeutsch":"LINDE",
    "strname":"Gounodstraße",
    "hausnr":"unbekannte Nummer",
    "standortnr":"41056",
    "pflanzjahr":1941,
    "standalter":"78",
    "bezirk":"Pankow",
    "wassermenge":50,
    "wassersumme":200,
    "anzahlG":7
    }
  },
  {
    "type": "Feature",
    "geometry": {
       "type": "Point",
       "coordinates":  [ 13.46368,52.51853 ]
    },
    "properties": {
    "id":"_0enbnsrkf",
    "artdtsch":"Pflaumenblättriger Weiss-Dorn",
    "gattungdeutsch":"WEIßDORN",
    "strname":"unbekannte Straße",
    "hausnr":"unbekannte Nummer",
    "standortnr":"60114",
    "pflanzjahr":2016,
    "standalter":"3",
    "bezirk":"Friedrichshain-Kreuzberg",
    "wassermenge":50,
    "wassersumme":300,
    "anzahlG":6
    }
  },
  {
    "type": "Feature",
    "geometry": {
       "type": "Point",
       "coordinates":  [ 13.52923,52.49065 ]
    },
    "properties": {
    "id":"_0epuygrgg",
    "artdtsch":"Säulen-Rot-Ahorn",
    "gattungdeutsch":"AHORN",
    "strname":"Rheinpfalzallee",
    "hausnr":"unbekannte Nummer",
    "standortnr":"31SB24",
    "pflanzjahr":2017,
    "standalter":"2",
    "bezirk":"Lichtenberg",
    "wassermenge":50,
    "wassersumme":50,
    "anzahlG":1
    }
  },
  {
    "type": "Feature",
    "geometry": {
       "type": "Point",
       "coordinates":  [ 13.48159,52.49953 ]
    },
    "properties": {
    "id":"_0es7q89bu",
    "artdtsch":"Spitz-Ahorn",
    "gattungdeutsch":"AHORN",
    "strname":"Schlichtallee",
    "hausnr":"unbekannte Nummer",
    "standortnr":"29SB16",
    "pflanzjahr":1965,
    "standalter":"54",
    "bezirk":"Lichtenberg",
    "wassermenge":25,
    "wassersumme":100,
    "anzahlG":3
    }
  },
  {
    "type": "Feature",
    "geometry": {
       "type": "Point",
       "coordinates":  [ 13.43416,52.51691 ]
    },
    "properties": {
    "id":"_0eymialcm",
    "artdtsch":"Österreichische Schwarzkiefer",
    "gattungdeutsch":"KIEFER",
    "strname":"unbekannte Straße",
    "hausnr":"unbekannte Nummer",
    "standortnr":"60412",
    "pflanzjahr":1985,
    "standalter":"34",
    "bezirk":"Friedrichshain-Kreuzberg",
    "wassermenge":5,
    "wassersumme":5,
    "anzahlG":1
    }
  },
  {
    "type": "Feature",
    "geometry": {
       "type": "Point",
       "coordinates":  [ 13.533,52.47575 ]
    },
    "properties": {
    "id":"_0f6c4rq2y",
    "artdtsch":"Chinesische Wild-Birne",
    "gattungdeutsch":"BIRNE",
    "strname":"Fritz-Kortner-Straße",
    "hausnr":"unbekannte Nummer",
    "standortnr":"32SB11",
    "pflanzjahr":2008,
    "standalter":"11",
    "bezirk":"Lichtenberg",
    "wassermenge":50,
    "wassersumme":50,
    "anzahlG":1
    }
  },
  {
    "type": "Feature",
    "geometry": {
       "type": "Point",
       "coordinates":  [ 13.463,52.51439 ]
    },
    "properties": {
    "id":"_0fpr74jfu",
    "artdtsch":"Amberbaum",
    "gattungdeutsch":"AMBERBAUM",
    "strname":"Mainzer Straße",
    "hausnr":"unbekannte Nummer",
    "standortnr":"MAINZER",
    "pflanzjahr":2013,
    "standalter":"6",
    "bezirk":"Friedrichshain-Kreuzberg",
    "wassermenge":50,
    "wassersumme":50,
    "anzahlG":1
    }
  },
  {
    "type": "Feature",
    "geometry": {
       "type": "Point",
       "coordinates":  [ 13.38309,52.56178 ]
    },
    "properties": {
    "id":"_0g4tw75op",
    "artdtsch":"Zierapfel 'Evereste'",
    "gattungdeutsch":"APFEL",
    "strname":"Fordoner Straße",
    "hausnr":"5",
    "standortnr":"361801",
    "pflanzjahr":2014,
    "standalter":"5",
    "bezirk":"Mitte",
    "wassermenge":50,
    "wassersumme":150,
    "anzahlG":3
    }
  },
  {
    "type": "Feature",
    "geometry": {
       "type": "Point",
       "coordinates":  [ 13.4667,52.51717 ]
    },
    "properties": {
    "id":"_0g5io5lma",
    "artdtsch":"Chinesische Wild-Birne",
    "gattungdeutsch":"BIRNE",
    "strname":"Schreinerstraße",
    "hausnr":"unbekannte Nummer",
    "standortnr":"SCHREIN",
    "pflanzjahr":1999,
    "standalter":"20",
    "bezirk":"Friedrichshain-Kreuzberg",
    "wassermenge":10,
    "wassersumme":70,
    "anzahlG":3
    }
  },
  {
    "type": "Feature",
    "geometry": {
       "type": "Point",
       "coordinates":  [ 13.34264,52.46942 ]
    },
    "properties": {
    "id":"_0gfxxlipm",
    "artdtsch":"Berg-Ahorn, Weiss-Ahorn",
    "gattungdeutsch":"AHORN",
    "strname":"Begasstraße",
    "hausnr":"3",
    "standortnr":"17897",
    "pflanzjahr":1988,
    "standalter":"31",
    "bezirk":"Tempelhof-Schöneberg",
    "wassermenge":50,
    "wassersumme":450,
    "anzahlG":17
    }
  },
  {
    "type": "Feature",
    "geometry": {
       "type": "Point",
       "coordinates":  [ 13.40392,52.50937 ]
    },
    "properties": {
    "id":"_0gwn4m9ny",
    "artdtsch":"Säulenförmiger Spitz-Ahorn",
    "gattungdeutsch":"AHORN",
    "strname":"Seydelstraße",
    "hausnr":"12",
    "standortnr":"193100",
    "pflanzjahr":2016,
    "standalter":"3",
    "bezirk":"Mitte",
    "wassermenge":10,
    "wassersumme":60,
    "anzahlG":6
    }
  },
  {
    "type": "Feature",
    "geometry": {
       "type": "Point",
       "coordinates":  [ 13.44787,52.48643 ]
    },
    "properties": {
    "id":"_0h8r7jn5j",
    "artdtsch":"Italienische Pyramiden-Pappel",
    "gattungdeutsch":"PAPPEL",
    "strname":"unbekannte Straße",
    "hausnr":"unbekannte Nummer",
    "standortnr":"414.900",
    "pflanzjahr":2014,
    "standalter":"5",
    "bezirk":"Neukölln",
    "wassermenge":50,
    "wassersumme":50,
    "anzahlG":1
    }
  },
  {
    "type": "Feature",
    "geometry": {
       "type": "Point",
       "coordinates":  [ 13.33295,52.48976 ]
    },
    "properties": {
    "id":"_0hjk0kr2x",
    "artdtsch":"Sommer-Linde",
    "gattungdeutsch":"LINDE",
    "strname":"Prinzregentenstraße",
    "hausnr":"11",
    "standortnr":"03545",
    "pflanzjahr":1977,
    "standalter":"42",
    "bezirk":"Charlottenburg-Wilmersdorf",
    "wassermenge":25,
    "wassersumme":75,
    "anzahlG":3
    }
  },
  {
    "type": "Feature",
    "geometry": {
       "type": "Point",
       "coordinates":  [ 13.41729,52.50067 ]
    },
    "properties": {
    "id":"_0ho9jps4d",
    "artdtsch":"Kleinkronige Winter-Linde",
    "gattungdeutsch":"LINDE",
    "strname":"Dresdener Straße",
    "hausnr":"unbekannte Nummer",
    "standortnr":"06096",
    "pflanzjahr":2009,
    "standalter":"10",
    "bezirk":"Friedrichshain-Kreuzberg",
    "wassermenge":50,
    "wassersumme":50,
    "anzahlG":1
    }
  },
  {
    "type": "Feature",
    "geometry": {
       "type": "Point",
       "coordinates":  [ 13.37023,52.54178 ]
    },
    "properties": {
    "id":"_0hy56eioe",
    "artdtsch":"Großblättrige Sommerlinde",
    "gattungdeutsch":"LINDE",
    "strname":"Schönwalder Straße",
    "hausnr":"17",
    "standortnr":"364400",
    "pflanzjahr":2015,
    "standalter":"4",
    "bezirk":"Mitte",
    "wassermenge":50,
    "wassersumme":150,
    "anzahlG":3
    }
  },
  {
    "type": "Feature",
    "geometry": {
       "type": "Point",
       "coordinates":  [ 13.39342,52.38885 ]
    },
    "properties": {
    "id":"_0hzgized3",
    "artdtsch":"Baum-Hasel",
    "gattungdeutsch":"HASEL",
    "strname":"Wünsdorfer Straße",
    "hausnr":"94",
    "standortnr":"4957",
    "pflanzjahr":2013,
    "standalter":"6",
    "bezirk":"Tempelhof-Schöneberg",
    "wassermenge":10,
    "wassersumme":10,
    "anzahlG":1
    }
  },
  {
    "type": "Feature",
    "geometry": {
       "type": "Point",
       "coordinates":  [ 13.25333,52.52081 ]
    },
    "properties": {
    "id":"_0i4splnrb",
    "artdtsch":"Winter-Linde",
    "gattungdeutsch":"LINDE",
    "strname":"Westendallee",
    "hausnr":"76",
    "standortnr":"04813",
    "pflanzjahr":1950,
    "standalter":"69",
    "bezirk":"Charlottenburg-Wilmersdorf",
    "wassermenge":25,
    "wassersumme":75,
    "anzahlG":2
    }
  },
  {
    "type": "Feature",
    "geometry": {
       "type": "Point",
       "coordinates":  [ 13.41325,52.554 ]
    },
    "properties": {
    "id":"_0iakdelxm",
    "artdtsch":"Winter-Linde",
    "gattungdeutsch":"LINDE",
    "strname":"Bornholmer Straße",
    "hausnr":"unbekannte Nummer",
    "standortnr":"06087",
    "pflanzjahr":1993,
    "standalter":"26",
    "bezirk":"Pankow",
    "wassermenge":50,
    "wassersumme":50,
    "anzahlG":1
    }
  },
  {
    "type": "Feature",
    "geometry": {
       "type": "Point",
       "coordinates":  [ 13.45686,52.51301 ]
    },
    "properties": {
    "id":"_0ijz0ixrz",
    "artdtsch":"Kleinkronige Winter-Linde",
    "gattungdeutsch":"LINDE",
    "strname":"Boxhagener Straße",
    "hausnr":"unbekannte Nummer",
    "standortnr":"BOXHAGEN",
    "pflanzjahr":2011,
    "standalter":"8",
    "bezirk":"Friedrichshain-Kreuzberg",
    "wassermenge":5,
    "wassersumme":55,
    "anzahlG":2
    }
  },
  {
    "type": "Feature",
    "geometry": {
       "type": "Point",
       "coordinates":  [ 13.32448,52.59265 ]
    },
    "properties": {
    "id":"_0j0s58dnh",
    "artdtsch":"Gemeine Rosskastanie",
    "gattungdeutsch":"ROSSKASTANIE",
    "strname":"unbekannte Straße",
    "hausnr":"unbekannte Nummer",
    "standortnr":"00998",
    "pflanzjahr":1890,
    "standalter":"129",
    "bezirk":"Reinickendorf",
    "wassermenge":50,
    "wassersumme":50,
    "anzahlG":1
    }
  },
  {
    "type": "Feature",
    "geometry": {
       "type": "Point",
       "coordinates":  [ 13.30275,52.51618 ]
    },
    "properties": {
    "id":"_0j3uswo9v",
    "artdtsch":"Winter-Linde 'Greenspire'",
    "gattungdeutsch":"LINDE",
    "strname":"Gierkezeile",
    "hausnr":"38",
    "standortnr":"01552",
    "pflanzjahr":2005,
    "standalter":"14",
    "bezirk":"Charlottenburg-Wilmersdorf",
    "wassermenge":50,
    "wassersumme":325,
    "anzahlG":8
    }
  },
  {
    "type": "Feature",
    "geometry": {
       "type": "Point",
       "coordinates":  [ 13.3789,52.49169 ]
    },
    "properties": {
    "id":"_0jbrwy1ic",
    "artdtsch":"Echter Rotdorn",
    "gattungdeutsch":"WEIßDORN",
    "strname":"Yorckstraße",
    "hausnr":"unbekannte Nummer",
    "standortnr":"04977",
    "pflanzjahr":2009,
    "standalter":"10",
    "bezirk":"Friedrichshain-Kreuzberg",
    "wassermenge":50,
    "wassersumme":300,
    "anzahlG":7
    }
  },
  {
    "type": "Feature",
    "geometry": {
       "type": "Point",
       "coordinates":  [ 13.44788,52.49275 ]
    },
    "properties": {
    "id":"_0jifekn6p",
    "artdtsch":"Winter-Linde 'Greenspire'",
    "gattungdeutsch":"LINDE",
    "strname":"Kiefholzstraße",
    "hausnr":"unbekannte Nummer",
    "standortnr":"10294",
    "pflanzjahr":2000,
    "standalter":"19",
    "bezirk":"Treptow-Köpenick",
    "wassermenge":5,
    "wassersumme":20,
    "anzahlG":4
    }
  },
  {
    "type": "Feature",
    "geometry": {
       "type": "Point",
       "coordinates":  [ 13.42873,52.49018 ]
    },
    "properties": {
    "id":"_0jigg4bce",
    "artdtsch":"Winter-Linde",
    "gattungdeutsch":"LINDE",
    "strname":"Lenaustraße",
    "hausnr":"14",
    "standortnr":"2738",
    "pflanzjahr":1975,
    "standalter":"44",
    "bezirk":"Neukölln",
    "wassermenge":5,
    "wassersumme":5,
    "anzahlG":1
    }
  },
  {
    "type": "Feature",
    "geometry": {
       "type": "Point",
       "coordinates":  [ 13.30123,52.51425 ]
    },
    "properties": {
    "id":"_0jmpdlymu",
    "artdtsch":"Winter-Linde",
    "gattungdeutsch":"LINDE",
    "strname":"Kaiser-Friedrich-Straße",
    "hausnr":"87",
    "standortnr":"02288",
    "pflanzjahr":1985,
    "standalter":"34",
    "bezirk":"Charlottenburg-Wilmersdorf",
    "wassermenge":50,
    "wassersumme":100,
    "anzahlG":2
    }
  },
  {
    "type": "Feature",
    "geometry": {
       "type": "Point",
       "coordinates":  [ 13.52885,52.48175 ]
    },
    "properties": {
    "id":"_0k3xbmekx",
    "artdtsch":"Silber-Linde",
    "gattungdeutsch":"LINDE",
    "strname":"Drachenfelsstraße",
    "hausnr":"7",
    "standortnr":"31SB07",
    "pflanzjahr":2004,
    "standalter":"15",
    "bezirk":"Lichtenberg",
    "wassermenge":25,
    "wassersumme":160,
    "anzahlG":7
    }
  },
  {
    "type": "Feature",
    "geometry": {
       "type": "Point",
       "coordinates":  [ 13.47081,52.51718 ]
    },
    "properties": {
    "id":"_0k5bg6f5h",
    "artdtsch":"Pflaumenblättriger Weiss-Dorn",
    "gattungdeutsch":"WEIßDORN",
    "strname":"unbekannte Straße",
    "hausnr":"unbekannte Nummer",
    "standortnr":"60114",
    "pflanzjahr":2013,
    "standalter":"6",
    "bezirk":"Friedrichshain-Kreuzberg",
    "wassermenge":10,
    "wassersumme":160,
    "anzahlG":4
    }
  },
  {
    "type": "Feature",
    "geometry": {
       "type": "Point",
       "coordinates":  [ 13.43769,52.59823 ]
    },
    "properties": {
    "id":"_0k6ft6w6j",
    "artdtsch":"Zierkirsche 'Rancho'",
    "gattungdeutsch":"undefined",
    "strname":"unbekannte Straße",
    "hausnr":"unbekannte Nummer",
    "standortnr":"387",
    "pflanzjahr":2018,
    "standalter":"1",
    "bezirk":"Pankow",
    "wassermenge":10,
    "wassersumme":25,
    "anzahlG":3
    }
  },
  {
    "type": "Feature",
    "geometry": {
       "type": "Point",
       "coordinates":  [ 13.52946,52.47891 ]
    },
    "properties": {
    "id":"_0ka0gs97a",
    "artdtsch":"Winter-Linde",
    "gattungdeutsch":"LINDE",
    "strname":"Am Carlsgarten",
    "hausnr":"unbekannte Nummer",
    "standortnr":"32SB01",
    "pflanzjahr":2008,
    "standalter":"11",
    "bezirk":"Lichtenberg",
    "wassermenge":50,
    "wassersumme":200,
    "anzahlG":4
    }
  },
  {
    "type": "Feature",
    "geometry": {
       "type": "Point",
       "coordinates":  [ 13.40385,52.55348 ]
    },
    "properties": {
    "id":"_0kg90fx24",
    "artdtsch":"Säulenförmiger Spitz-Ahorn",
    "gattungdeutsch":"AHORN",
    "strname":"Czarnikauer Straße",
    "hausnr":"unbekannte Nummer",
    "standortnr":"40535",
    "pflanzjahr":2016,
    "standalter":"3",
    "bezirk":"Pankow",
    "wassermenge":5,
    "wassersumme":55,
    "anzahlG":2
    }
  },
  {
    "type": "Feature",
    "geometry": {
       "type": "Point",
       "coordinates":  [ 13.46637,52.50984 ]
    },
    "properties": {
    "id":"_0kuijjbub",
    "artdtsch":"Spitz-Ahorn",
    "gattungdeutsch":"AHORN",
    "strname":"Glatzer Straße",
    "hausnr":"unbekannte Nummer",
    "standortnr":"GLATZER",
    "pflanzjahr":1960,
    "standalter":"59",
    "bezirk":"Friedrichshain-Kreuzberg",
    "wassermenge":10,
    "wassersumme":10,
    "anzahlG":1
    }
  },
  {
    "type": "Feature",
    "geometry": {
       "type": "Point",
       "coordinates":  [ 13.33297,52.50167 ]
    },
    "properties": {
    "id":"_0kxgnjhap",
    "artdtsch":"Japanischer Schnurbaum",
    "gattungdeutsch":"undefined",
    "strname":"Rankestraße",
    "hausnr":"24",
    "standortnr":"03598",
    "pflanzjahr":2005,
    "standalter":"14",
    "bezirk":"Charlottenburg-Wilmersdorf",
    "wassermenge":50,
    "wassersumme":1060,
    "anzahlG":36
    }
  },
  {
    "type": "Feature",
    "geometry": {
       "type": "Point",
       "coordinates":  [ 13.41523,52.49447 ]
    },
    "properties": {
    "id":"_0lalmcvxw",
    "artdtsch":"Hainbuche",
    "gattungdeutsch":"HAINBUCHE",
    "strname":"Grimmstraße",
    "hausnr":"unbekannte Nummer",
    "standortnr":"01696",
    "pflanzjahr":1977,
    "standalter":"42",
    "bezirk":"Friedrichshain-Kreuzberg",
    "wassermenge":50,
    "wassersumme":200,
    "anzahlG":4
    }
  },
  {
    "type": "Feature",
    "geometry": {
       "type": "Point",
       "coordinates":  [ 13.3123,52.46277 ]
    },
    "properties": {
    "id":"_0lmh6v8cg",
    "artdtsch":"Winter-Linde",
    "gattungdeutsch":"LINDE",
    "strname":"Paulsenstraße",
    "hausnr":"45a",
    "standortnr":"3419",
    "pflanzjahr":1945,
    "standalter":"74",
    "bezirk":"Steglitz-Zehlendorf",
    "wassermenge":50,
    "wassersumme":50,
    "anzahlG":1
    }
  },
  {
    "type": "Feature",
    "geometry": {
       "type": "Point",
       "coordinates":  [ 13.37843,52.45878 ]
    },
    "properties": {
    "id":"_0ln1hhgfw",
    "artdtsch":"Spitz-Ahorn",
    "gattungdeutsch":"AHORN",
    "strname":"Friedrich-Wilhelm-Straße",
    "hausnr":"30",
    "standortnr":"1404",
    "pflanzjahr":1964,
    "standalter":"55",
    "bezirk":"Tempelhof-Schöneberg",
    "wassermenge":25,
    "wassersumme":25,
    "anzahlG":1
    }
  },
  {
    "type": "Feature",
    "geometry": {
       "type": "Point",
       "coordinates":  [ 13.41041,52.55146 ]
    },
    "properties": {
    "id":"_0lo5xxm44",
    "artdtsch":"Hainbuche",
    "gattungdeutsch":"HAINBUCHE",
    "strname":"Seelower Straße",
    "hausnr":"unbekannte Nummer",
    "standortnr":"42665",
    "pflanzjahr":1980,
    "standalter":"39",
    "bezirk":"Pankow",
    "wassermenge":50,
    "wassersumme":200,
    "anzahlG":7
    }
  },
  {
    "type": "Feature",
    "geometry": {
       "type": "Point",
       "coordinates":  [ 13.31119,52.50106 ]
    },
    "properties": {
    "id":"_0m2quj2tw",
    "artdtsch":"Ahornblättrige Platane",
    "gattungdeutsch":"PLATANE",
    "strname":"Giesebrechtstraße",
    "hausnr":"9",
    "standortnr":"01553",
    "pflanzjahr":1970,
    "standalter":"49",
    "bezirk":"Charlottenburg-Wilmersdorf",
    "wassermenge":25,
    "wassersumme":25,
    "anzahlG":1
    }
  },
  {
    "type": "Feature",
    "geometry": {
       "type": "Point",
       "coordinates":  [ 13.32447,52.46772 ]
    },
    "properties": {
    "id":"_0mr76syp2",
    "artdtsch":"Spitz-Ahorn",
    "gattungdeutsch":"AHORN",
    "strname":"Odenwaldstraße",
    "hausnr":"21",
    "standortnr":"17838",
    "pflanzjahr":2000,
    "standalter":"19",
    "bezirk":"Tempelhof-Schöneberg",
    "wassermenge":50,
    "wassersumme":200,
    "anzahlG":4
    }
  },
  {
    "type": "Feature",
    "geometry": {
       "type": "Point",
       "coordinates":  [ 13.32286,52.47513 ]
    },
    "properties": {
    "id":"_0mwbjys3l",
    "artdtsch":"Berg-Ahorn, Weiss-Ahorn",
    "gattungdeutsch":"AHORN",
    "strname":"Offenbacher Straße",
    "hausnr":"30",
    "standortnr":"17716",
    "pflanzjahr":1963,
    "standalter":"56",
    "bezirk":"Tempelhof-Schöneberg",
    "wassermenge":25,
    "wassersumme":25,
    "anzahlG":1
    }
  },
  {
    "type": "Feature",
    "geometry": {
       "type": "Point",
       "coordinates":  [ 13.26569,52.53655 ]
    },
    "properties": {
    "id":"_0nfzb88ek",
    "artdtsch":"Feld-Ulme",
    "gattungdeutsch":"ULME",
    "strname":"Nonnendammallee",
    "hausnr":"80",
    "standortnr":"03260-Str",
    "pflanzjahr":1936,
    "standalter":"83",
    "bezirk":"Spandau",
    "wassermenge":25,
    "wassersumme":175,
    "anzahlG":5
    }
  },
  {
    "type": "Feature",
    "geometry": {
       "type": "Point",
       "coordinates":  [ 13.32178,52.4881 ]
    },
    "properties": {
    "id":"_0ny8vilki",
    "artdtsch":"Krim-Linde",
    "gattungdeutsch":"LINDE",
    "strname":"Fechnerstraße",
    "hausnr":"11",
    "standortnr":"01242",
    "pflanzjahr":1966,
    "standalter":"53",
    "bezirk":"Charlottenburg-Wilmersdorf",
    "wassermenge":25,
    "wassersumme":25,
    "anzahlG":1
    }
  },
  {
    "type": "Feature",
    "geometry": {
       "type": "Point",
       "coordinates":  [ 13.42668,52.4953 ]
    },
    "properties": {
    "id":"_0o6jj9ar4",
    "artdtsch":"Spitz-Ahorn",
    "gattungdeutsch":"AHORN",
    "strname":"Lausitzer Straße",
    "hausnr":"unbekannte Nummer",
    "standortnr":"02720",
    "pflanzjahr":1982,
    "standalter":"37",
    "bezirk":"Friedrichshain-Kreuzberg",
    "wassermenge":50,
    "wassersumme":50,
    "anzahlG":1
    }
  },
  {
    "type": "Feature",
    "geometry": {
       "type": "Point",
       "coordinates":  [ 13.4047,52.54914 ]
    },
    "properties": {
    "id":"_0o802b2fu",
    "artdtsch":"Rot-Ahorn",
    "gattungdeutsch":"AHORN",
    "strname":"Ystader Straße",
    "hausnr":"unbekannte Nummer",
    "standortnr":"43635",
    "pflanzjahr":2012,
    "standalter":"7",
    "bezirk":"Pankow",
    "wassermenge":5,
    "wassersumme":455,
    "anzahlG":10
    }
  },
  {
    "type": "Feature",
    "geometry": {
       "type": "Point",
       "coordinates":  [ 13.45882,52.52276 ]
    },
    "properties": {
    "id":"_0o8s33g6o",
    "artdtsch":"Rotblühende Rosskastanie",
    "gattungdeutsch":"ROSSKASTANIE",
    "strname":"unbekannte Straße",
    "hausnr":"unbekannte Nummer",
    "standortnr":"80101",
    "pflanzjahr":2007,
    "standalter":"12",
    "bezirk":"Pankow",
    "wassermenge":50,
    "wassersumme":80,
    "anzahlG":4
    }
  },
  {
    "type": "Feature",
    "geometry": {
       "type": "Point",
       "coordinates":  [ 13.30258,52.50567 ]
    },
    "properties": {
    "id":"_0ok0gewb6",
    "artdtsch":"Winter-Linde",
    "gattungdeutsch":"LINDE",
    "strname":"Kaiser-Friedrich-Straße",
    "hausnr":"ggü. 54A",
    "standortnr":"02288",
    "pflanzjahr":1992,
    "standalter":"27",
    "bezirk":"Charlottenburg-Wilmersdorf",
    "wassermenge":50,
    "wassersumme":100,
    "anzahlG":2
    }
  },
  {
    "type": "Feature",
    "geometry": {
       "type": "Point",
       "coordinates":  [ 13.3418,52.52817 ]
    },
    "properties": {
    "id":"_0onf9fwqe",
    "artdtsch":"Hainbuche",
    "gattungdeutsch":"HAINBUCHE",
    "strname":"Bugenhagenstraße",
    "hausnr":"10",
    "standortnr":"221020",
    "pflanzjahr":1980,
    "standalter":"39",
    "bezirk":"Mitte",
    "wassermenge":5,
    "wassersumme":105,
    "anzahlG":5
    }
  },
  {
    "type": "Feature",
    "geometry": {
       "type": "Point",
       "coordinates":  [ 13.33421,52.49023 ]
    },
    "properties": {
    "id":"_0ow2qovmd",
    "artdtsch":"Robinie",
    "gattungdeutsch":"ROBINIE",
    "strname":"Helmstedter Straße",
    "hausnr":"7",
    "standortnr":"01932",
    "pflanzjahr":1966,
    "standalter":"53",
    "bezirk":"Charlottenburg-Wilmersdorf",
    "wassermenge":25,
    "wassersumme":475,
    "anzahlG":10
    }
  },
  {
    "type": "Feature",
    "geometry": {
       "type": "Point",
       "coordinates":  [ 13.52975,52.4901 ]
    },
    "properties": {
    "id":"_0p12jwio5",
    "artdtsch":"Eschen-Ahorn",
    "gattungdeutsch":"AHORN",
    "strname":"Rheinpfalzallee",
    "hausnr":"unbekannte Nummer",
    "standortnr":"31SB24",
    "pflanzjahr":1965,
    "standalter":"54",
    "bezirk":"Lichtenberg",
    "wassermenge":50,
    "wassersumme":150,
    "anzahlG":3
    }
  },
  {
    "type": "Feature",
    "geometry": {
       "type": "Point",
       "coordinates":  [ 13.43688,52.46148 ]
    },
    "properties": {
    "id":"_0p46xvmin",
    "artdtsch":"Echte Mehlbeere",
    "gattungdeutsch":"MEHLBEERE",
    "strname":"Bürgerstraße",
    "hausnr":"69",
    "standortnr":"793",
    "pflanzjahr":1965,
    "standalter":"54",
    "bezirk":"Neukölln",
    "wassermenge":10,
    "wassersumme":10,
    "anzahlG":1
    }
  },
  {
    "type": "Feature",
    "geometry": {
       "type": "Point",
       "coordinates":  [ 13.4306,52.61247 ]
    },
    "properties": {
    "id":"_0pbgcl16t",
    "artdtsch":"Gemeine Rosskastanie",
    "gattungdeutsch":"ROSSKASTANIE",
    "strname":"Triftstraße",
    "hausnr":"unbekannte Nummer",
    "standortnr":"43348",
    "pflanzjahr":2007,
    "standalter":"12",
    "bezirk":"Pankow",
    "wassermenge":5,
    "wassersumme":10,
    "anzahlG":2
    }
  },
  {
    "type": "Feature",
    "geometry": {
       "type": "Point",
       "coordinates":  [ 13.37375,52.47275 ]
    },
    "properties": {
    "id":"_0pvr79163",
    "artdtsch":"Japanische Zierkirsche 'Kanzan'",
    "gattungdeutsch":"undefined",
    "strname":"Hoeppnerstraße",
    "hausnr":"80",
    "standortnr":"2037",
    "pflanzjahr":2018,
    "standalter":"1",
    "bezirk":"Tempelhof-Schöneberg",
    "wassermenge":50,
    "wassersumme":350,
    "anzahlG":7
    }
  },
  {
    "type": "Feature",
    "geometry": {
       "type": "Point",
       "coordinates":  [ 13.31931,52.59015 ]
    },
    "properties": {
    "id":"_0pzr6bhao",
    "artdtsch":"Sommer-Eiche, Stiel-Eiche",
    "gattungdeutsch":"EICHE",
    "strname":"Triftstraße",
    "hausnr":"68",
    "standortnr":"04550-Str",
    "pflanzjahr":2016,
    "standalter":"3",
    "bezirk":"Reinickendorf",
    "wassermenge":10,
    "wassersumme":50,
    "anzahlG":5
    }
  },
  {
    "type": "Feature",
    "geometry": {
       "type": "Point",
       "coordinates":  [ 13.52808,52.49079 ]
    },
    "properties": {
    "id":"_0q86h5dbp",
    "artdtsch":"Kleinkronige Winter-Linde",
    "gattungdeutsch":"LINDE",
    "strname":"Treskowallee",
    "hausnr":"unbekannte Nummer",
    "standortnr":"31SB37",
    "pflanzjahr":2013,
    "standalter":"6",
    "bezirk":"Lichtenberg",
    "wassermenge":25,
    "wassersumme":75,
    "anzahlG":3
    }
  },
  {
    "type": "Feature",
    "geometry": {
       "type": "Point",
       "coordinates":  [ 13.46631,52.50581 ]
    },
    "properties": {
    "id":"_0qbmon4dp",
    "artdtsch":"Linde",
    "gattungdeutsch":"LINDE",
    "strname":"Sonntagstraße",
    "hausnr":"unbekannte Nummer",
    "standortnr":"SONNTAGS",
    "pflanzjahr":2018,
    "standalter":"0",
    "bezirk":"Friedrichshain-Kreuzberg",
    "wassermenge":25,
    "wassersumme":25,
    "anzahlG":1
    }
  },
  {
    "type": "Feature",
    "geometry": {
       "type": "Point",
       "coordinates":  [ 13.32748,52.46713 ]
    },
    "properties": {
    "id":"_0qjy2jpkp",
    "artdtsch":"Gemeine Rosskastanie",
    "gattungdeutsch":"ROSSKASTANIE",
    "strname":"Fröaufstraße",
    "hausnr":"2",
    "standortnr":"17884",
    "pflanzjahr":1998,
    "standalter":"21",
    "bezirk":"Tempelhof-Schöneberg",
    "wassermenge":50,
    "wassersumme":720,
    "anzahlG":16
    }
  },
  {
    "type": "Feature",
    "geometry": {
       "type": "Point",
       "coordinates":  [ 13.44347,52.48688 ]
    },
    "properties": {
    "id":"_0qo6fzdx6",
    "artdtsch":"Winter-Linde",
    "gattungdeutsch":"LINDE",
    "strname":"Bouchéstraße",
    "hausnr":"45",
    "standortnr":"6088",
    "pflanzjahr":1972,
    "standalter":"47",
    "bezirk":"Neukölln",
    "wassermenge":25,
    "wassersumme":150,
    "anzahlG":4
    }
  },
  {
    "type": "Feature",
    "geometry": {
       "type": "Point",
       "coordinates":  [ 13.32837,52.47935 ]
    },
    "properties": {
    "id":"_0qwnkia0b",
    "artdtsch":"Spitz-Ahorn",
    "gattungdeutsch":"AHORN",
    "strname":"Bundesplatz",
    "hausnr":"unbekannte Nummer",
    "standortnr":"06945",
    "pflanzjahr":1966,
    "standalter":"53",
    "bezirk":"Charlottenburg-Wilmersdorf",
    "wassermenge":10,
    "wassersumme":10,
    "anzahlG":1
    }
  },
  {
    "type": "Feature",
    "geometry": {
       "type": "Point",
       "coordinates":  [ 13.33274,52.44022 ]
    },
    "properties": {
    "id":"_0rdnm505q",
    "artdtsch":"Eingriffliger Weissdorn",
    "gattungdeutsch":"WEIßDORN",
    "strname":"Mozartstraße",
    "hausnr":"unbekannte Nummer",
    "standortnr":"003135",
    "pflanzjahr":1999,
    "standalter":"20",
    "bezirk":"Steglitz-Zehlendorf",
    "wassermenge":25,
    "wassersumme":25,
    "anzahlG":1
    }
  },
  {
    "type": "Feature",
    "geometry": {
       "type": "Point",
       "coordinates":  [ 13.31417,52.5074 ]
    },
    "properties": {
    "id":"_0rnp551xl",
    "artdtsch":"Kaiser-Linde",
    "gattungdeutsch":"LINDE",
    "strname":"Leibnizstraße",
    "hausnr":"31",
    "standortnr":"02732",
    "pflanzjahr":1987,
    "standalter":"32",
    "bezirk":"Charlottenburg-Wilmersdorf",
    "wassermenge":50,
    "wassersumme":150,
    "anzahlG":3
    }
  },
  {
    "type": "Feature",
    "geometry": {
       "type": "Point",
       "coordinates":  [ 13.32619,52.52644 ]
    },
    "properties": {
    "id":"_0rssasrtu",
    "artdtsch":"Berg-Ahorn, Weiss-Ahorn",
    "gattungdeutsch":"AHORN",
    "strname":"Erasmusstraße",
    "hausnr":"7",
    "standortnr":"241300",
    "pflanzjahr":1990,
    "standalter":"29",
    "bezirk":"Mitte",
    "wassermenge":50,
    "wassersumme":600,
    "anzahlG":12
    }
  },
  {
    "type": "Feature",
    "geometry": {
       "type": "Point",
       "coordinates":  [ 13.43002,52.48791 ]
    },
    "properties": {
    "id":"_0rwkpapy0",
    "artdtsch":"Winter-Linde",
    "gattungdeutsch":"LINDE",
    "strname":"Weserstraße",
    "hausnr":"14",
    "standortnr":"4809",
    "pflanzjahr":1985,
    "standalter":"34",
    "bezirk":"Neukölln",
    "wassermenge":10,
    "wassersumme":45,
    "anzahlG":3
    }
  },
  {
    "type": "Feature",
    "geometry": {
       "type": "Point",
       "coordinates":  [ 13.43864,52.53514 ]
    },
    "properties": {
    "id":"_0rwo0x5m0",
    "artdtsch":"Winter-Linde",
    "gattungdeutsch":"LINDE",
    "strname":"Bötzowstraße",
    "hausnr":"unbekannte Nummer",
    "standortnr":"40403",
    "pflanzjahr":2011,
    "standalter":"8",
    "bezirk":"Pankow",
    "wassermenge":50,
    "wassersumme":50,
    "anzahlG":1
    }
  },
  {
    "type": "Feature",
    "geometry": {
       "type": "Point",
       "coordinates":  [ 13.32412,52.47598 ]
    },
    "properties": {
    "id":"_0rzxesfwp",
    "artdtsch":"Geschlitzter Silber-Ahorn",
    "gattungdeutsch":"AHORN",
    "strname":"Stubenrauchstraße",
    "hausnr":"35",
    "standortnr":"17819",
    "pflanzjahr":1920,
    "standalter":"99",
    "bezirk":"Tempelhof-Schöneberg",
    "wassermenge":50,
    "wassersumme":570,
    "anzahlG":13
    }
  },
  {
    "type": "Feature",
    "geometry": {
       "type": "Point",
       "coordinates":  [ 13.31563,52.45432 ]
    },
    "properties": {
    "id":"_0s50r0vup",
    "artdtsch":"Rotblühende Rosskastanie",
    "gattungdeutsch":"ROSSKASTANIE",
    "strname":"Wulffstraße",
    "hausnr":"14",
    "standortnr":"4964",
    "pflanzjahr":2015,
    "standalter":"4",
    "bezirk":"Steglitz-Zehlendorf",
    "wassermenge":25,
    "wassersumme":275,
    "anzahlG":8
    }
  },
  {
    "type": "Feature",
    "geometry": {
       "type": "Point",
       "coordinates":  [ 13.52343,52.48488 ]
    },
    "properties": {
    "id":"_0s92sfqet",
    "artdtsch":"Winter-Linde",
    "gattungdeutsch":"LINDE",
    "strname":"Dorotheastraße",
    "hausnr":"unbekannte Nummer",
    "standortnr":"30SB04",
    "pflanzjahr":1975,
    "standalter":"44",
    "bezirk":"Lichtenberg",
    "wassermenge":50,
    "wassersumme":50,
    "anzahlG":1
    }
  },
  {
    "type": "Feature",
    "geometry": {
       "type": "Point",
       "coordinates":  [ 13.26835,52.50997 ]
    },
    "properties": {
    "id":"_0snjhupqr",
    "artdtsch":"Rotblühende Rosskastanie",
    "gattungdeutsch":"ROSSKASTANIE",
    "strname":"Kastanienallee",
    "hausnr":"22",
    "standortnr":"02345",
    "pflanzjahr":2003,
    "standalter":"16",
    "bezirk":"Charlottenburg-Wilmersdorf",
    "wassermenge":25,
    "wassersumme":25,
    "anzahlG":1
    }
  },
  {
    "type": "Feature",
    "geometry": {
       "type": "Point",
       "coordinates":  [ 13.49917,52.57115 ]
    },
    "properties": {
    "id":"_0sp6elv7r",
    "artdtsch":"Dreidorniger Lederhülsenbaum",
    "gattungdeutsch":"GLEDITSCHIE",
    "strname":"Ribnitzer Straße",
    "hausnr":"unbekannte Nummer",
    "standortnr":"08SB04",
    "pflanzjahr":1990,
    "standalter":"29",
    "bezirk":"Lichtenberg",
    "wassermenge":5,
    "wassersumme":55,
    "anzahlG":2
    }
  },
  {
    "type": "Feature",
    "geometry": {
       "type": "Point",
       "coordinates":  [ 13.38318,52.55857 ]
    },
    "properties": {
    "id":"_0spgwq0l6",
    "artdtsch":"Japanische Zierkirsche 'Kanzan'",
    "gattungdeutsch":"undefined",
    "strname":"unbekannte Straße",
    "hausnr":"unbekannte Nummer",
    "standortnr":"301010",
    "pflanzjahr":1995,
    "standalter":"24",
    "bezirk":"Mitte",
    "wassermenge":50,
    "wassersumme":250,
    "anzahlG":5
    }
  },
  {
    "type": "Feature",
    "geometry": {
       "type": "Point",
       "coordinates":  [ 13.52475,52.56469 ]
    },
    "properties": {
    "id":"_0tpanx7tx",
    "artdtsch":"Spitz-Ahorn",
    "gattungdeutsch":"AHORN",
    "strname":"Vincent-van-Gogh-Straße",
    "hausnr":"unbekannte Nummer",
    "standortnr":"04SB06",
    "pflanzjahr":1995,
    "standalter":"24",
    "bezirk":"Lichtenberg",
    "wassermenge":5,
    "wassersumme":5,
    "anzahlG":1
    }
  },
  {
    "type": "Feature",
    "geometry": {
       "type": "Point",
       "coordinates":  [ 13.41851,52.55453 ]
    },
    "properties": {
    "id":"_0ttgy2y5n",
    "artdtsch":"Kaiser-Linde",
    "gattungdeutsch":"LINDE",
    "strname":"Trelleborger Straße",
    "hausnr":"unbekannte Nummer",
    "standortnr":"43338",
    "pflanzjahr":2004,
    "standalter":"15",
    "bezirk":"Pankow",
    "wassermenge":25,
    "wassersumme":55,
    "anzahlG":3
    }
  },
  {
    "type": "Feature",
    "geometry": {
       "type": "Point",
       "coordinates":  [ 13.38229,52.46781 ]
    },
    "properties": {
    "id":"_0tzn2jpd8",
    "artdtsch":"Sommer-Linde",
    "gattungdeutsch":"LINDE",
    "strname":"Sennockstraße",
    "hausnr":"19",
    "standortnr":"4146",
    "pflanzjahr":1992,
    "standalter":"27",
    "bezirk":"Tempelhof-Schöneberg",
    "wassermenge":10,
    "wassersumme":95,
    "anzahlG":5
    }
  },
  {
    "type": "Feature",
    "geometry": {
       "type": "Point",
       "coordinates":  [ 13.34432,52.4653 ]
    },
    "properties": {
    "id":"_0u326rtd9",
    "artdtsch":"Winter-Linde",
    "gattungdeutsch":"LINDE",
    "strname":"Rubensstraße",
    "hausnr":"106",
    "standortnr":"17730",
    "pflanzjahr":1977,
    "standalter":"42",
    "bezirk":"Tempelhof-Schöneberg",
    "wassermenge":10,
    "wassersumme":50,
    "anzahlG":5
    }
  },
  {
    "type": "Feature",
    "geometry": {
       "type": "Point",
       "coordinates":  [ 13.32959,52.46454 ]
    },
    "properties": {
    "id":"_0ucitg079",
    "artdtsch":"Baum-Hasel",
    "gattungdeutsch":"HASEL",
    "strname":"Schöneberger Straße",
    "hausnr":"14",
    "standortnr":"3999",
    "pflanzjahr":2000,
    "standalter":"19",
    "bezirk":"Steglitz-Zehlendorf",
    "wassermenge":25,
    "wassersumme":25,
    "anzahlG":1
    }
  },
  {
    "type": "Feature",
    "geometry": {
       "type": "Point",
       "coordinates":  [ 13.30845,52.45803 ]
    },
    "properties": {
    "id":"_0ugylnk3q",
    "artdtsch":"Berg-Ahorn, Weiss-Ahorn",
    "gattungdeutsch":"AHORN",
    "strname":"Arno-Holz-Straße",
    "hausnr":"14",
    "standortnr":"000341",
    "pflanzjahr":1955,
    "standalter":"64",
    "bezirk":"Steglitz-Zehlendorf",
    "wassermenge":25,
    "wassersumme":25,
    "anzahlG":1
    }
  },
  {
    "type": "Feature",
    "geometry": {
       "type": "Point",
       "coordinates":  [ 13.44341,52.48678 ]
    },
    "properties": {
    "id":"_0v62o4iwe",
    "artdtsch":"Winter-Linde",
    "gattungdeutsch":"LINDE",
    "strname":"Bouchéstraße",
    "hausnr":"53",
    "standortnr":"6088",
    "pflanzjahr":1980,
    "standalter":"39",
    "bezirk":"Neukölln",
    "wassermenge":50,
    "wassersumme":150,
    "anzahlG":4
    }
  },
  {
    "type": "Feature",
    "geometry": {
       "type": "Point",
       "coordinates":  [ 13.31655,52.41825 ]
    },
    "properties": {
    "id":"_0vosg1zpf",
    "artdtsch":"Resista Ulme 'Rebona'",
    "gattungdeutsch":"ULME",
    "strname":"Blanckertzweg",
    "hausnr":"unbekannte Nummer",
    "standortnr":"000598",
    "pflanzjahr":2019,
    "standalter":"0",
    "bezirk":"Steglitz-Zehlendorf",
    "wassermenge":50,
    "wassersumme":425,
    "anzahlG":9
    }
  },
  {
    "type": "Feature",
    "geometry": {
       "type": "Point",
       "coordinates":  [ 13.45536,52.51352 ]
    },
    "properties": {
    "id":"_0w7bwspl3",
    "artdtsch":"Kaiser-Linde",
    "gattungdeutsch":"LINDE",
    "strname":"Boxhagener Straße",
    "hausnr":"unbekannte Nummer",
    "standortnr":"BOXHAGEN",
    "pflanzjahr":1998,
    "standalter":"21",
    "bezirk":"Friedrichshain-Kreuzberg",
    "wassermenge":50,
    "wassersumme":200,
    "anzahlG":4
    }
  },
  {
    "type": "Feature",
    "geometry": {
       "type": "Point",
       "coordinates":  [ 13.41556,52.5017 ]
    },
    "properties": {
    "id":"_0wainrptp",
    "artdtsch":"Silber-Linde",
    "gattungdeutsch":"LINDE",
    "strname":"unbekannte Straße",
    "hausnr":"unbekannte Nummer",
    "standortnr":"50036",
    "pflanzjahr":1921,
    "standalter":"98",
    "bezirk":"Friedrichshain-Kreuzberg",
    "wassermenge":10,
    "wassersumme":10,
    "anzahlG":1
    }
  },
  {
    "type": "Feature",
    "geometry": {
       "type": "Point",
       "coordinates":  [ 13.29902,52.51697 ]
    },
    "properties": {
    "id":"_0wbmtvij1",
    "artdtsch":"Spitz-Ahorn",
    "gattungdeutsch":"AHORN",
    "strname":"Schustehrusstraße",
    "hausnr":"31-41",
    "standortnr":"04054",
    "pflanzjahr":1980,
    "standalter":"39",
    "bezirk":"Charlottenburg-Wilmersdorf",
    "wassermenge":10,
    "wassersumme":10,
    "anzahlG":1
    }
  },
  {
    "type": "Feature",
    "geometry": {
       "type": "Point",
       "coordinates":  [ 13.37533,52.55249 ]
    },
    "properties": {
    "id":"_0wcm4yusz",
    "artdtsch":"Winter-Linde",
    "gattungdeutsch":"LINDE",
    "strname":"Uferstraße",
    "hausnr":"23",
    "standortnr":"378400",
    "pflanzjahr":1967,
    "standalter":"52",
    "bezirk":"Mitte",
    "wassermenge":50,
    "wassersumme":300,
    "anzahlG":6
    }
  },
  {
    "type": "Feature",
    "geometry": {
       "type": "Point",
       "coordinates":  [ 13.33568,52.44216 ]
    },
    "properties": {
    "id":"_0wjt19mnr",
    "artdtsch":"Spitz-Ahorn",
    "gattungdeutsch":"AHORN",
    "strname":"Nicolaistraße",
    "hausnr":"31",
    "standortnr":"003234",
    "pflanzjahr":1990,
    "standalter":"29",
    "bezirk":"Steglitz-Zehlendorf",
    "wassermenge":50,
    "wassersumme":50,
    "anzahlG":1
    }
  },
  {
    "type": "Feature",
    "geometry": {
       "type": "Point",
       "coordinates":  [ 13.38929,52.58696 ]
    },
    "properties": {
    "id":"_0wl97wynv",
    "artdtsch":"Kleinkronige Winter-Linde",
    "gattungdeutsch":"LINDE",
    "strname":"Friedrich-Engels-Straße",
    "hausnr":"unbekannte Nummer",
    "standortnr":"40899",
    "pflanzjahr":2014,
    "standalter":"5",
    "bezirk":"Pankow",
    "wassermenge":25,
    "wassersumme":25,
    "anzahlG":1
    }
  },
  {
    "type": "Feature",
    "geometry": {
       "type": "Point",
       "coordinates":  [ 13.43673,52.49785 ]
    },
    "properties": {
    "id":"_0wlder2hg",
    "artdtsch":"Gewöhnliche Esche",
    "gattungdeutsch":"ESCHE",
    "strname":"Görlitzer Straße",
    "hausnr":"unbekannte Nummer",
    "standortnr":"01596",
    "pflanzjahr":1972,
    "standalter":"47",
    "bezirk":"Friedrichshain-Kreuzberg",
    "wassermenge":25,
    "wassersumme":25,
    "anzahlG":1
    }
  },
  {
    "type": "Feature",
    "geometry": {
       "type": "Point",
       "coordinates":  [ 13.4359,52.51939 ]
    },
    "properties": {
    "id":"_0wo72t512",
    "artdtsch":"Berg-Ahorn, Weiss-Ahorn",
    "gattungdeutsch":"AHORN",
    "strname":"unbekannte Straße",
    "hausnr":"unbekannte Nummer",
    "standortnr":"60136",
    "pflanzjahr":1980,
    "standalter":"39",
    "bezirk":"Friedrichshain-Kreuzberg",
    "wassermenge":50,
    "wassersumme":50,
    "anzahlG":1
    }
  },
  {
    "type": "Feature",
    "geometry": {
       "type": "Point",
       "coordinates":  [ 13.24042,52.5998 ]
    },
    "properties": {
    "id":"_0x12gfyou",
    "artdtsch":"Baum-Hasel",
    "gattungdeutsch":"HASEL",
    "strname":"Schauflerpfad",
    "hausnr":"22",
    "standortnr":"03923-Str",
    "pflanzjahr":2011,
    "standalter":"8",
    "bezirk":"Reinickendorf",
    "wassermenge":50,
    "wassersumme":100,
    "anzahlG":2
    }
  },
  {
    "type": "Feature",
    "geometry": {
       "type": "Point",
       "coordinates":  [ 13.44541,52.48026 ]
    },
    "properties": {
    "id":"_0x312epz8",
    "artdtsch":"Linde",
    "gattungdeutsch":"LINDE",
    "strname":"Stuttgarter Straße",
    "hausnr":"54",
    "standortnr":"",
    "pflanzjahr":1985,
    "standalter":"34",
    "bezirk":"Neukölln",
    "wassermenge":10,
    "wassersumme":120,
    "anzahlG":6
    }
  },
  {
    "type": "Feature",
    "geometry": {
       "type": "Point",
       "coordinates":  [ 13.51127,52.43643 ]
    },
    "properties": {
    "id":"_0x45kkdcd",
    "artdtsch":"Gefuelltblühende Vogelkirsche",
    "gattungdeutsch":"undefined",
    "strname":"Hanuschkestraße",
    "hausnr":"unbekannte Nummer",
    "standortnr":"040174",
    "pflanzjahr":2007,
    "standalter":"12",
    "bezirk":"Treptow-Köpenick",
    "wassermenge":50,
    "wassersumme":600,
    "anzahlG":12
    }
  },
  {
    "type": "Feature",
    "geometry": {
       "type": "Point",
       "coordinates":  [ 13.38766,52.48397 ]
    },
    "properties": {
    "id":"_0x5h1lym8",
    "artdtsch":"Sommer-Eiche, Stiel-Eiche",
    "gattungdeutsch":"EICHE",
    "strname":"Platz der Luftbrücke",
    "hausnr":"4",
    "standortnr":"7114",
    "pflanzjahr":1968,
    "standalter":"51",
    "bezirk":"Tempelhof-Schöneberg",
    "wassermenge":25,
    "wassersumme":25,
    "anzahlG":1
    }
  },
  {
    "type": "Feature",
    "geometry": {
       "type": "Point",
       "coordinates":  [ 13.49166,52.50309 ]
    },
    "properties": {
    "id":"_0x85z24dd",
    "artdtsch":"Japanische Zierkirsche 'Kanzan'",
    "gattungdeutsch":"undefined",
    "strname":"Emanuelstraße",
    "hausnr":"unbekannte Nummer",
    "standortnr":"",
    "pflanzjahr":1965,
    "standalter":"54",
    "bezirk":"Lichtenberg",
    "wassermenge":50,
    "wassersumme":85,
    "anzahlG":3
    }
  },
  {
    "type": "Feature",
    "geometry": {
       "type": "Point",
       "coordinates":  [ 13.30292,52.52404 ]
    },
    "properties": {
    "id":"_0x89ya2xa",
    "artdtsch":"Ahornblättrige Platane",
    "gattungdeutsch":"PLATANE",
    "strname":"Mierendorffstraße",
    "hausnr":"24",
    "standortnr":"03074",
    "pflanzjahr":1969,
    "standalter":"50",
    "bezirk":"Charlottenburg-Wilmersdorf",
    "wassermenge":50,
    "wassersumme":50,
    "anzahlG":1
    }
  },
  {
    "type": "Feature",
    "geometry": {
       "type": "Point",
       "coordinates":  [ 13.5157,52.48483 ]
    },
    "properties": {
    "id":"_0xcxyode8",
    "artdtsch":"Ahornblättrige Platane",
    "gattungdeutsch":"PLATANE",
    "strname":"Grimnitzstraße",
    "hausnr":"unbekannte Nummer",
    "standortnr":"32SB14",
    "pflanzjahr":1983,
    "standalter":"36",
    "bezirk":"Lichtenberg",
    "wassermenge":25,
    "wassersumme":25,
    "anzahlG":1
    }
  },
  {
    "type": "Feature",
    "geometry": {
       "type": "Point",
       "coordinates":  [ 13.36127,52.50143 ]
    },
    "properties": {
    "id":"_0xkog8few",
    "artdtsch":"Kleinkronige Winter-Linde",
    "gattungdeutsch":"LINDE",
    "strname":"Pohlstraße",
    "hausnr":"87",
    "standortnr":"219620",
    "pflanzjahr":2006,
    "standalter":"13",
    "bezirk":"Mitte",
    "wassermenge":25,
    "wassersumme":75,
    "anzahlG":2
    }
  },
  {
    "type": "Feature",
    "geometry": {
       "type": "Point",
       "coordinates":  [ 13.42918,52.53511 ]
    },
    "properties": {
    "id":"_0xxngzmi6",
    "artdtsch":"Rot-Ahorn",
    "gattungdeutsch":"AHORN",
    "strname":"Christburger Straße",
    "hausnr":"unbekannte Nummer",
    "standortnr":"40518",
    "pflanzjahr":1999,
    "standalter":"20",
    "bezirk":"Pankow",
    "wassermenge":25,
    "wassersumme":25,
    "anzahlG":1
    }
  },
  {
    "type": "Feature",
    "geometry": {
       "type": "Point",
       "coordinates":  [ 13.31169,52.5009 ]
    },
    "properties": {
    "id":"_0xy1e7qnf",
    "artdtsch":"Ahornblättrige Platane",
    "gattungdeutsch":"PLATANE",
    "strname":"Giesebrechtstraße",
    "hausnr":"10",
    "standortnr":"01553",
    "pflanzjahr":1961,
    "standalter":"58",
    "bezirk":"Charlottenburg-Wilmersdorf",
    "wassermenge":50,
    "wassersumme":50,
    "anzahlG":1
    }
  },
  {
    "type": "Feature",
    "geometry": {
       "type": "Point",
       "coordinates":  [ 13.46894,52.51801 ]
    },
    "properties": {
    "id":"_0y07y02ve",
    "artdtsch":"Winter-Linde",
    "gattungdeutsch":"LINDE",
    "strname":"Voigtstraße",
    "hausnr":"unbekannte Nummer",
    "standortnr":"VOIGT",
    "pflanzjahr":1999,
    "standalter":"20",
    "bezirk":"Friedrichshain-Kreuzberg",
    "wassermenge":25,
    "wassersumme":25,
    "anzahlG":1
    }
  },
  {
    "type": "Feature",
    "geometry": {
       "type": "Point",
       "coordinates":  [ 13.37369,52.53091 ]
    },
    "properties": {
    "id":"_0z18m4yx5",
    "artdtsch":"Holländische Linde",
    "gattungdeutsch":"LINDE",
    "strname":"Scharnhorststraße",
    "hausnr":"1",
    "standortnr":"191000",
    "pflanzjahr":1962,
    "standalter":"57",
    "bezirk":"Mitte",
    "wassermenge":50,
    "wassersumme":350,
    "anzahlG":8
    }
  },
  {
    "type": "Feature",
    "geometry": {
       "type": "Point",
       "coordinates":  [ 13.41526,52.49451 ]
    },
    "properties": {
    "id":"_0z7scyhsk",
    "artdtsch":"Berg-Ahorn, Weiss-Ahorn",
    "gattungdeutsch":"AHORN",
    "strname":"Grimmstraße",
    "hausnr":"unbekannte Nummer",
    "standortnr":"01696",
    "pflanzjahr":1981,
    "standalter":"38",
    "bezirk":"Friedrichshain-Kreuzberg",
    "wassermenge":50,
    "wassersumme":200,
    "anzahlG":4
    }
  },
  {
    "type": "Feature",
    "geometry": {
       "type": "Point",
       "coordinates":  [ 13.46837,52.51233 ]
    },
    "properties": {
    "id":"_0zewj6ts3",
    "artdtsch":"Kaiser-Linde",
    "gattungdeutsch":"LINDE",
    "strname":"Finowstraße",
    "hausnr":"32",
    "standortnr":"FINOWSTR",
    "pflanzjahr":2015,
    "standalter":"4",
    "bezirk":"Friedrichshain-Kreuzberg",
    "wassermenge":25,
    "wassersumme":25,
    "anzahlG":1
    }
  },
  {
    "type": "Feature",
    "geometry": {
       "type": "Point",
       "coordinates":  [ 13.35422,52.54279 ]
    },
    "properties": {
    "id":"_0zpicnlyz",
    "artdtsch":"Feld-Ulme",
    "gattungdeutsch":"ULME",
    "strname":"Triftstraße",
    "hausnr":"50",
    "standortnr":"30668",
    "pflanzjahr":1960,
    "standalter":"59",
    "bezirk":"Mitte",
    "wassermenge":10,
    "wassersumme":35,
    "anzahlG":2
    }
  },
  {
    "type": "Feature",
    "geometry": {
       "type": "Point",
       "coordinates":  [ 13.44578,52.44584 ]
    },
    "properties": {
    "id":"_0zq9xxgcr",
    "artdtsch":"Japanische Zierkirsche 'Kanzan'",
    "gattungdeutsch":"undefined",
    "strname":"Parchimer Allee",
    "hausnr":"96",
    "standortnr":"3395",
    "pflanzjahr":1986,
    "standalter":"33",
    "bezirk":"Neukölln",
    "wassermenge":25,
    "wassersumme":25,
    "anzahlG":1
    }
  },
  {
    "type": "Feature",
    "geometry": {
       "type": "Point",
       "coordinates":  [ 13.34822,52.55402 ]
    },
    "properties": {
    "id":"_0zr0js07f",
    "artdtsch":"Winter-Linde",
    "gattungdeutsch":"LINDE",
    "strname":"Türkenstraße",
    "hausnr":"22",
    "standortnr":"30574",
    "pflanzjahr":1970,
    "standalter":"49",
    "bezirk":"Mitte",
    "wassermenge":5,
    "wassersumme":5,
    "anzahlG":1
    }
  },
  {
    "type": "Feature",
    "geometry": {
       "type": "Point",
       "coordinates":  [ 13.46643,52.55107 ]
    },
    "properties": {
    "id":"_0zzl0dhmk",
    "artdtsch":"Ahornblättrige Platane",
    "gattungdeutsch":"PLATANE",
    "strname":"Indira-Gandhi-Straße",
    "hausnr":"unbekannte Nummer",
    "standortnr":"41774",
    "pflanzjahr":1992,
    "standalter":"27",
    "bezirk":"Pankow",
    "wassermenge":10,
    "wassersumme":45,
    "anzahlG":3
    }
  },
  {
    "type": "Feature",
    "geometry": {
       "type": "Point",
       "coordinates":  [ 13.45495,52.52371 ]
    },
    "properties": {
    "id":"_109wef9fp",
    "artdtsch":"Winter-Linde 'Greenspire'",
    "gattungdeutsch":"LINDE",
    "strname":"Hausburgstraße",
    "hausnr":"unbekannte Nummer",
    "standortnr":"HAUSBURG",
    "pflanzjahr":1998,
    "standalter":"21",
    "bezirk":"Friedrichshain-Kreuzberg",
    "wassermenge":50,
    "wassersumme":50,
    "anzahlG":1
    }
  },
  {
    "type": "Feature",
    "geometry": {
       "type": "Point",
       "coordinates":  [ 13.41463,52.54438 ]
    },
    "properties": {
    "id":"_10j814pnp",
    "artdtsch":"Esche",
    "gattungdeutsch":"ESCHE",
    "strname":"Greifenhagener Straße",
    "hausnr":"unbekannte Nummer",
    "standortnr":"41076",
    "pflanzjahr":2003,
    "standalter":"16",
    "bezirk":"Pankow",
    "wassermenge":50,
    "wassersumme":185,
    "anzahlG":9
    }
  },
  {
    "type": "Feature",
    "geometry": {
       "type": "Point",
       "coordinates":  [ 13.34821,52.49367 ]
    },
    "properties": {
    "id":"_10m2pvjkh",
    "artdtsch":"Gemeine Rosskastanie",
    "gattungdeutsch":"ROSSKASTANIE",
    "strname":"Lindauer Straße",
    "hausnr":"unbekannte Nummer",
    "standortnr":"17694",
    "pflanzjahr":1942,
    "standalter":"77",
    "bezirk":"Tempelhof-Schöneberg",
    "wassermenge":50,
    "wassersumme":1600,
    "anzahlG":32
    }
  },
  {
    "type": "Feature",
    "geometry": {
       "type": "Point",
       "coordinates":  [ 13.46306,52.50625 ]
    },
    "properties": {
    "id":"_10tcyrl4p",
    "artdtsch":"Krim-Linde",
    "gattungdeutsch":"LINDE",
    "strname":"Simplonstraße",
    "hausnr":"unbekannte Nummer",
    "standortnr":"SIMPLONS",
    "pflanzjahr":1953,
    "standalter":"66",
    "bezirk":"Friedrichshain-Kreuzberg",
    "wassermenge":50,
    "wassersumme":150,
    "anzahlG":3
    }
  },
  {
    "type": "Feature",
    "geometry": {
       "type": "Point",
       "coordinates":  [ 13.31642,52.47583 ]
    },
    "properties": {
    "id":"_10wlh556w",
    "artdtsch":"Amerikanische Linde",
    "gattungdeutsch":"LINDE",
    "strname":"Offenbacher Straße",
    "hausnr":"16",
    "standortnr":"03302",
    "pflanzjahr":1979,
    "standalter":"40",
    "bezirk":"Charlottenburg-Wilmersdorf",
    "wassermenge":25,
    "wassersumme":90,
    "anzahlG":5
    }
  },
  {
    "type": "Feature",
    "geometry": {
       "type": "Point",
       "coordinates":  [ 13.47448,52.5044 ]
    },
    "properties": {
    "id":"_110wm1hiu",
    "artdtsch":"Winter-Linde",
    "gattungdeutsch":"LINDE",
    "strname":"Schreiberhauer Straße",
    "hausnr":"unbekannte Nummer",
    "standortnr":"",
    "pflanzjahr":2002,
    "standalter":"17",
    "bezirk":"Lichtenberg",
    "wassermenge":25,
    "wassersumme":235,
    "anzahlG":10
    }
  },
  {
    "type": "Feature",
    "geometry": {
       "type": "Point",
       "coordinates":  [ 13.3249,52.49114 ]
    },
    "properties": {
    "id":"_111nperl7",
    "artdtsch":"Sommer-Eiche, Stiel-Eiche",
    "gattungdeutsch":"EICHE",
    "strname":"Holsteinische Straße",
    "hausnr":"19",
    "standortnr":"02067",
    "pflanzjahr":1995,
    "standalter":"24",
    "bezirk":"Charlottenburg-Wilmersdorf",
    "wassermenge":25,
    "wassersumme":25,
    "anzahlG":1
    }
  },
  {
    "type": "Feature",
    "geometry": {
       "type": "Point",
       "coordinates":  [ 13.47573,52.50596 ]
    },
    "properties": {
    "id":"_11bi2x2n3",
    "artdtsch":"Winter-Linde",
    "gattungdeutsch":"LINDE",
    "strname":"Schreiberhauer Straße",
    "hausnr":"unbekannte Nummer",
    "standortnr":"23SB11",
    "pflanzjahr":2002,
    "standalter":"17",
    "bezirk":"Lichtenberg",
    "wassermenge":10,
    "wassersumme":10,
    "anzahlG":1
    }
  },
  {
    "type": "Feature",
    "geometry": {
       "type": "Point",
       "coordinates":  [ 13.45951,52.54704 ]
    },
    "properties": {
    "id":"_11fn1rh8i",
    "artdtsch":"Sommer-Linde",
    "gattungdeutsch":"LINDE",
    "strname":"Gounodstraße",
    "hausnr":"unbekannte Nummer",
    "standortnr":"41056",
    "pflanzjahr":1957,
    "standalter":"62",
    "bezirk":"Pankow",
    "wassermenge":50,
    "wassersumme":100,
    "anzahlG":2
    }
  },
  {
    "type": "Feature",
    "geometry": {
       "type": "Point",
       "coordinates":  [ 13.41196,52.54252 ]
    },
    "properties": {
    "id":"_1251kc0a0",
    "artdtsch":"Winter-Linde",
    "gattungdeutsch":"LINDE",
    "strname":"Schönhauser Allee",
    "hausnr":"unbekannte Nummer",
    "standortnr":"42616",
    "pflanzjahr":1994,
    "standalter":"25",
    "bezirk":"Pankow",
    "wassermenge":25,
    "wassersumme":100,
    "anzahlG":4
    }
  },
  {
    "type": "Feature",
    "geometry": {
       "type": "Point",
       "coordinates":  [ 13.38174,52.49157 ]
    },
    "properties": {
    "id":"_12egnlo90",
    "artdtsch":"Rot-/Weißdorn",
    "gattungdeutsch":"WEIßDORN",
    "strname":"Hagelberger Straße",
    "hausnr":"unbekannte Nummer",
    "standortnr":"01792",
    "pflanzjahr":2003,
    "standalter":"16",
    "bezirk":"Friedrichshain-Kreuzberg",
    "wassermenge":50,
    "wassersumme":75,
    "anzahlG":2
    }
  },
  {
    "type": "Feature",
    "geometry": {
       "type": "Point",
       "coordinates":  [ 13.47855,52.50365 ]
    },
    "properties": {
    "id":"_12ne706r2",
    "artdtsch":"Spitz-Ahorn",
    "gattungdeutsch":"AHORN",
    "strname":"Spittastraße",
    "hausnr":"31/33",
    "standortnr":"23SB12",
    "pflanzjahr":2008,
    "standalter":"11",
    "bezirk":"Lichtenberg",
    "wassermenge":50,
    "wassersumme":350,
    "anzahlG":7
    }
  },
  {
    "type": "Feature",
    "geometry": {
       "type": "Point",
       "coordinates":  [ 13.39322,52.494 ]
    },
    "properties": {
    "id":"_12riwyzop",
    "artdtsch":"Chinesische Wild-Birne",
    "gattungdeutsch":"BIRNE",
    "strname":"Solmsstraße",
    "hausnr":"unbekannte Nummer",
    "standortnr":"04212",
    "pflanzjahr":2007,
    "standalter":"12",
    "bezirk":"Friedrichshain-Kreuzberg",
    "wassermenge":10,
    "wassersumme":10,
    "anzahlG":1
    }
  },
  {
    "type": "Feature",
    "geometry": {
       "type": "Point",
       "coordinates":  [ 13.51162,52.43641 ]
    },
    "properties": {
    "id":"_12x822k4t",
    "artdtsch":"Gefuelltblühende Vogelkirsche",
    "gattungdeutsch":"undefined",
    "strname":"Hanuschkestraße",
    "hausnr":"unbekannte Nummer",
    "standortnr":"040174",
    "pflanzjahr":2007,
    "standalter":"12",
    "bezirk":"Treptow-Köpenick",
    "wassermenge":50,
    "wassersumme":600,
    "anzahlG":12
    }
  },
  {
    "type": "Feature",
    "geometry": {
       "type": "Point",
       "coordinates":  [ 13.30488,52.49365 ]
    },
    "properties": {
    "id":"_12y00a47h",
    "artdtsch":"Spitz-Ahorn",
    "gattungdeutsch":"AHORN",
    "strname":"Eisenzahnstraße",
    "hausnr":"50",
    "standortnr":"01110",
    "pflanzjahr":1979,
    "standalter":"40",
    "bezirk":"Charlottenburg-Wilmersdorf",
    "wassermenge":50,
    "wassersumme":100,
    "anzahlG":2
    }
  },
  {
    "type": "Feature",
    "geometry": {
       "type": "Point",
       "coordinates":  [ 13.3396,52.52356 ]
    },
    "properties": {
    "id":"_135cht5hp",
    "artdtsch":"Säulen-Weiss-Dorn",
    "gattungdeutsch":"WEIßDORN",
    "strname":"Krefelder Straße",
    "hausnr":"8",
    "standortnr":"243400",
    "pflanzjahr":2015,
    "standalter":"4",
    "bezirk":"Mitte",
    "wassermenge":50,
    "wassersumme":125,
    "anzahlG":3
    }
  },
  {
    "type": "Feature",
    "geometry": {
       "type": "Point",
       "coordinates":  [ 13.43112,52.42048 ]
    },
    "properties": {
    "id":"_137qfw2u7",
    "artdtsch":"Linde",
    "gattungdeutsch":"LINDE",
    "strname":"unbekannte Straße",
    "hausnr":"unbekannte Nummer",
    "standortnr":"211.570",
    "pflanzjahr":null,
    "standalter":"undefined",
    "bezirk":"Neukölln",
    "wassermenge":50,
    "wassersumme":125,
    "anzahlG":3
    }
  },
  {
    "type": "Feature",
    "geometry": {
       "type": "Point",
       "coordinates":  [ 13.46548,52.5182 ]
    },
    "properties": {
    "id":"_13ar45ajk",
    "artdtsch":"Spitz-Ahorn",
    "gattungdeutsch":"AHORN",
    "strname":"unbekannte Straße",
    "hausnr":"unbekannte Nummer",
    "standortnr":"60114",
    "pflanzjahr":1971,
    "standalter":"48",
    "bezirk":"Friedrichshain-Kreuzberg",
    "wassermenge":10,
    "wassersumme":220,
    "anzahlG":6
    }
  },
  {
    "type": "Feature",
    "geometry": {
       "type": "Point",
       "coordinates":  [ 13.42125,52.55622 ]
    },
    "properties": {
    "id":"_13f8iyjph",
    "artdtsch":"Winter-Linde 'Greenspire'",
    "gattungdeutsch":"LINDE",
    "strname":"Eschengraben",
    "hausnr":"unbekannte Nummer",
    "standortnr":"40768",
    "pflanzjahr":2005,
    "standalter":"14",
    "bezirk":"Pankow",
    "wassermenge":50,
    "wassersumme":275,
    "anzahlG":6
    }
  },
  {
    "type": "Feature",
    "geometry": {
       "type": "Point",
       "coordinates":  [ 13.3565,52.49096 ]
    },
    "properties": {
    "id":"_13rdtiwdv",
    "artdtsch":"Japanische Zierkirsche 'Kanzan'",
    "gattungdeutsch":"undefined",
    "strname":"Elßholzstraße",
    "hausnr":"29",
    "standortnr":"17888",
    "pflanzjahr":2017,
    "standalter":"2",
    "bezirk":"Tempelhof-Schöneberg",
    "wassermenge":10,
    "wassersumme":180,
    "anzahlG":12
    }
  },
  {
    "type": "Feature",
    "geometry": {
       "type": "Point",
       "coordinates":  [ 13.49498,52.51589 ]
    },
    "properties": {
    "id":"_1444mfd4i",
    "artdtsch":"Sommer-Linde",
    "gattungdeutsch":"LINDE",
    "strname":"Hubertusstraße",
    "hausnr":"unbekannte Nummer",
    "standortnr":"21SB20",
    "pflanzjahr":1999,
    "standalter":"20",
    "bezirk":"Lichtenberg",
    "wassermenge":50,
    "wassersumme":335,
    "anzahlG":12
    }
  },
  {
    "type": "Feature",
    "geometry": {
       "type": "Point",
       "coordinates":  [ 13.36241,52.49101 ]
    },
    "properties": {
    "id":"_14eg3wyct",
    "artdtsch":"Kaiser-Linde",
    "gattungdeutsch":"LINDE",
    "strname":"Neue Steinmetzstraße",
    "hausnr":"6",
    "standortnr":"17707",
    "pflanzjahr":1994,
    "standalter":"25",
    "bezirk":"Tempelhof-Schöneberg",
    "wassermenge":50,
    "wassersumme":210,
    "anzahlG":6
    }
  },
  {
    "type": "Feature",
    "geometry": {
       "type": "Point",
       "coordinates":  [ 13.41131,52.54273 ]
    },
    "properties": {
    "id":"_14jlo7y0l",
    "artdtsch":"Gemeine Rosskastanie",
    "gattungdeutsch":"ROSSKASTANIE",
    "strname":"unbekannte Straße",
    "hausnr":"unbekannte Nummer",
    "standortnr":"70553",
    "pflanzjahr":1938,
    "standalter":"81",
    "bezirk":"Pankow",
    "wassermenge":10,
    "wassersumme":135,
    "anzahlG":4
    }
  },
  {
    "type": "Feature",
    "geometry": {
       "type": "Point",
       "coordinates":  [ 13.36191,52.48848 ]
    },
    "properties": {
    "id":"_14phuqic0",
    "artdtsch":"Kaiser-Linde",
    "gattungdeutsch":"LINDE",
    "strname":"Crellestraße",
    "hausnr":"34",
    "standortnr":"17892",
    "pflanzjahr":1986,
    "standalter":"33",
    "bezirk":"Tempelhof-Schöneberg",
    "wassermenge":10,
    "wassersumme":35,
    "anzahlG":2
    }
  },
  {
    "type": "Feature",
    "geometry": {
       "type": "Point",
       "coordinates":  [ 13.48434,52.62046 ]
    },
    "properties": {
    "id":"_14yvb90w8",
    "artdtsch":"Winter-Linde",
    "gattungdeutsch":"LINDE",
    "strname":"Busonistraße",
    "hausnr":"unbekannte Nummer",
    "standortnr":"06449",
    "pflanzjahr":1997,
    "standalter":"22",
    "bezirk":"Pankow",
    "wassermenge":10,
    "wassersumme":10,
    "anzahlG":1
    }
  },
  {
    "type": "Feature",
    "geometry": {
       "type": "Point",
       "coordinates":  [ 13.35688,52.55211 ]
    },
    "properties": {
    "id":"_14zvtxwtl",
    "artdtsch":"Säulen-Weiss-Dorn",
    "gattungdeutsch":"WEIßDORN",
    "strname":"Malplaquetstraße",
    "hausnr":"23",
    "standortnr":"30617",
    "pflanzjahr":2013,
    "standalter":"6",
    "bezirk":"Mitte",
    "wassermenge":10,
    "wassersumme":10,
    "anzahlG":1
    }
  },
  {
    "type": "Feature",
    "geometry": {
       "type": "Point",
       "coordinates":  [ 13.35866,52.5344 ]
    },
    "properties": {
    "id":"_156c0mra2",
    "artdtsch":"Spitz-Ahorn",
    "gattungdeutsch":"AHORN",
    "strname":"Lehrter Straße",
    "hausnr":"54",
    "standortnr":"222520",
    "pflanzjahr":1986,
    "standalter":"33",
    "bezirk":"Mitte",
    "wassermenge":10,
    "wassersumme":160,
    "anzahlG":5
    }
  },
  {
    "type": "Feature",
    "geometry": {
       "type": "Point",
       "coordinates":  [ 13.49562,52.50535 ]
    },
    "properties": {
    "id":"_15ci393pp",
    "artdtsch":"Winter-Linde",
    "gattungdeutsch":"LINDE",
    "strname":"Weitlingstraße",
    "hausnr":"unbekannte Nummer",
    "standortnr":"24SB47",
    "pflanzjahr":1999,
    "standalter":"20",
    "bezirk":"Lichtenberg",
    "wassermenge":10,
    "wassersumme":170,
    "anzahlG":6
    }
  },
  {
    "type": "Feature",
    "geometry": {
       "type": "Point",
       "coordinates":  [ 13.3476,52.53986 ]
    },
    "properties": {
    "id":"_15kzta93r",
    "artdtsch":"Japan-Birke",
    "gattungdeutsch":"BIRKE",
    "strname":"Buchstraße",
    "hausnr":"7",
    "standortnr":"366700",
    "pflanzjahr":1973,
    "standalter":"46",
    "bezirk":"Mitte",
    "wassermenge":10,
    "wassersumme":45,
    "anzahlG":3
    }
  },
  {
    "type": "Feature",
    "geometry": {
       "type": "Point",
       "coordinates":  [ 13.41412,52.49971 ]
    },
    "properties": {
    "id":"_15y3dir97",
    "artdtsch":"Ahornblättrige Platane",
    "gattungdeutsch":"PLATANE",
    "strname":"Erkelenzdamm",
    "hausnr":"unbekannte Nummer",
    "standortnr":"01183",
    "pflanzjahr":1924,
    "standalter":"95",
    "bezirk":"Friedrichshain-Kreuzberg",
    "wassermenge":25,
    "wassersumme":55,
    "anzahlG":4
    }
  },
  {
    "type": "Feature",
    "geometry": {
       "type": "Point",
       "coordinates":  [ 13.35465,52.54286 ]
    },
    "properties": {
    "id":"_1619150pl",
    "artdtsch":"Winter-Linde",
    "gattungdeutsch":"LINDE",
    "strname":"Triftstraße",
    "hausnr":"52",
    "standortnr":"30668",
    "pflanzjahr":2005,
    "standalter":"14",
    "bezirk":"Mitte",
    "wassermenge":25,
    "wassersumme":25,
    "anzahlG":1
    }
  },
  {
    "type": "Feature",
    "geometry": {
       "type": "Point",
       "coordinates":  [ 13.36664,52.50076 ]
    },
    "properties": {
    "id":"_162a2vacx",
    "artdtsch":"Einblattakazie",
    "gattungdeutsch":"ROBINIE",
    "strname":"Körnerstraße",
    "hausnr":"12",
    "standortnr":"243200",
    "pflanzjahr":1985,
    "standalter":"34",
    "bezirk":"Mitte",
    "wassermenge":25,
    "wassersumme":50,
    "anzahlG":2
    }
  },
  {
    "type": "Feature",
    "geometry": {
       "type": "Point",
       "coordinates":  [ 13.33409,52.47543 ]
    },
    "properties": {
    "id":"_162tuhhlk",
    "artdtsch":"Gewöhnliche Esche",
    "gattungdeutsch":"ESCHE",
    "strname":"Perelsplatz",
    "hausnr":"14",
    "standortnr":"17786",
    "pflanzjahr":1999,
    "standalter":"20",
    "bezirk":"Tempelhof-Schöneberg",
    "wassermenge":50,
    "wassersumme":80,
    "anzahlG":3
    }
  },
  {
    "type": "Feature",
    "geometry": {
       "type": "Point",
       "coordinates":  [ 13.31601,52.47328 ]
    },
    "properties": {
    "id":"_1663bo6gb",
    "artdtsch":"Holländische Linde",
    "gattungdeutsch":"LINDE",
    "strname":"Rüdesheimer Platz",
    "hausnr":"GEGÜ.3",
    "standortnr":"07132",
    "pflanzjahr":1955,
    "standalter":"64",
    "bezirk":"Charlottenburg-Wilmersdorf",
    "wassermenge":50,
    "wassersumme":250,
    "anzahlG":5
    }
  },
  {
    "type": "Feature",
    "geometry": {
       "type": "Point",
       "coordinates":  [ 13.31991,52.51704 ]
    },
    "properties": {
    "id":"_1696q5tb4",
    "artdtsch":"Spitz-Ahorn 'Emerald Queen'",
    "gattungdeutsch":"AHORN",
    "strname":"Guerickestraße",
    "hausnr":"unbekannte Nummer",
    "standortnr":"01741",
    "pflanzjahr":2004,
    "standalter":"15",
    "bezirk":"Charlottenburg-Wilmersdorf",
    "wassermenge":10,
    "wassersumme":420,
    "anzahlG":20
    }
  },
  {
    "type": "Feature",
    "geometry": {
       "type": "Point",
       "coordinates":  [ 13.33422,52.48994 ]
    },
    "properties": {
    "id":"_16ieu9u8d",
    "artdtsch":"Amerikanische Linde",
    "gattungdeutsch":"LINDE",
    "strname":"Helmstedter Straße",
    "hausnr":"9",
    "standortnr":"01932",
    "pflanzjahr":1986,
    "standalter":"33",
    "bezirk":"Charlottenburg-Wilmersdorf",
    "wassermenge":25,
    "wassersumme":25,
    "anzahlG":1
    }
  },
  {
    "type": "Feature",
    "geometry": {
       "type": "Point",
       "coordinates":  [ 13.39661,52.53397 ]
    },
    "properties": {
    "id":"_16ihb69q0",
    "artdtsch":"Holländische Linde",
    "gattungdeutsch":"LINDE",
    "strname":"Strelitzer Straße",
    "hausnr":"4",
    "standortnr":"194300",
    "pflanzjahr":1980,
    "standalter":"39",
    "bezirk":"Mitte",
    "wassermenge":10,
    "wassersumme":10,
    "anzahlG":1
    }
  },
  {
    "type": "Feature",
    "geometry": {
       "type": "Point",
       "coordinates":  [ 13.41335,52.554 ]
    },
    "properties": {
    "id":"_16o6tu3ey",
    "artdtsch":"Winter-Linde",
    "gattungdeutsch":"LINDE",
    "strname":"Bornholmer Straße",
    "hausnr":"unbekannte Nummer",
    "standortnr":"06087",
    "pflanzjahr":1993,
    "standalter":"26",
    "bezirk":"Pankow",
    "wassermenge":50,
    "wassersumme":50,
    "anzahlG":1
    }
  },
  {
    "type": "Feature",
    "geometry": {
       "type": "Point",
       "coordinates":  [ 13.46302,52.51859 ]
    },
    "properties": {
    "id":"_16obv9rz1",
    "artdtsch":"Spitz-Ahorn",
    "gattungdeutsch":"AHORN",
    "strname":"unbekannte Straße",
    "hausnr":"unbekannte Nummer",
    "standortnr":"60114",
    "pflanzjahr":1980,
    "standalter":"39",
    "bezirk":"Friedrichshain-Kreuzberg",
    "wassermenge":50,
    "wassersumme":300,
    "anzahlG":6
    }
  },
  {
    "type": "Feature",
    "geometry": {
       "type": "Point",
       "coordinates":  [ 13.33719,52.47559 ]
    },
    "properties": {
    "id":"_16qizw80l",
    "artdtsch":"Spitz-Ahorn",
    "gattungdeutsch":"AHORN",
    "strname":"Hähnelstraße",
    "hausnr":"5",
    "standortnr":"17683",
    "pflanzjahr":1951,
    "standalter":"68",
    "bezirk":"Tempelhof-Schöneberg",
    "wassermenge":25,
    "wassersumme":25,
    "anzahlG":1
    }
  },
  {
    "type": "Feature",
    "geometry": {
       "type": "Point",
       "coordinates":  [ 13.40832,52.54012 ]
    },
    "properties": {
    "id":"_17jaawakm",
    "artdtsch":"Gemeine Kiefer, Wald-Kiefer",
    "gattungdeutsch":"KIEFER",
    "strname":"unbekannte Straße",
    "hausnr":"unbekannte Nummer",
    "standortnr":"79441",
    "pflanzjahr":2012,
    "standalter":"7",
    "bezirk":"Pankow",
    "wassermenge":50,
    "wassersumme":50,
    "anzahlG":1
    }
  },
  {
    "type": "Feature",
    "geometry": {
       "type": "Point",
       "coordinates":  [ 13.49769,52.51262 ]
    },
    "properties": {
    "id":"_17otq8ivi",
    "artdtsch":"Ahornblättrige Platane",
    "gattungdeutsch":"PLATANE",
    "strname":"Siegfriedstraße",
    "hausnr":"unbekannte Nummer",
    "standortnr":"21SB47",
    "pflanzjahr":1982,
    "standalter":"37",
    "bezirk":"Lichtenberg",
    "wassermenge":10,
    "wassersumme":20,
    "anzahlG":2
    }
  },
  {
    "type": "Feature",
    "geometry": {
       "type": "Point",
       "coordinates":  [ 13.47607,52.50409 ]
    },
    "properties": {
    "id":"_17ppzrhj1",
    "artdtsch":"Spitz-Ahorn",
    "gattungdeutsch":"AHORN",
    "strname":"Pfarrstraße",
    "hausnr":"unbekannte Nummer",
    "standortnr":"",
    "pflanzjahr":2005,
    "standalter":"14",
    "bezirk":"Lichtenberg",
    "wassermenge":50,
    "wassersumme":50,
    "anzahlG":1
    }
  },
  {
    "type": "Feature",
    "geometry": {
       "type": "Point",
       "coordinates":  [ 13.45246,52.51206 ]
    },
    "properties": {
    "id":"_17tnse0it",
    "artdtsch":"Kaiser-Linde",
    "gattungdeutsch":"LINDE",
    "strname":"Warschauer Straße",
    "hausnr":"unbekannte Nummer",
    "standortnr":"WARSCH",
    "pflanzjahr":2007,
    "standalter":"12",
    "bezirk":"Friedrichshain-Kreuzberg",
    "wassermenge":50,
    "wassersumme":50,
    "anzahlG":1
    }
  },
  {
    "type": "Feature",
    "geometry": {
       "type": "Point",
       "coordinates":  [ 13.33508,52.47542 ]
    },
    "properties": {
    "id":"_17wqwq80y",
    "artdtsch":"Gewöhnliche Esche",
    "gattungdeutsch":"ESCHE",
    "strname":"Perelsplatz",
    "hausnr":"18",
    "standortnr":"17786",
    "pflanzjahr":2006,
    "standalter":"13",
    "bezirk":"Tempelhof-Schöneberg",
    "wassermenge":50,
    "wassersumme":150,
    "anzahlG":3
    }
  },
  {
    "type": "Feature",
    "geometry": {
       "type": "Point",
       "coordinates":  [ 13.43128,52.50069 ]
    },
    "properties": {
    "id":"_18hr823jc",
    "artdtsch":"Linde",
    "gattungdeutsch":"LINDE",
    "strname":"Lausitzer Platz",
    "hausnr":"unbekannte Nummer",
    "standortnr":"07050",
    "pflanzjahr":1956,
    "standalter":"63",
    "bezirk":"Friedrichshain-Kreuzberg",
    "wassermenge":50,
    "wassersumme":50,
    "anzahlG":1
    }
  },
  {
    "type": "Feature",
    "geometry": {
       "type": "Point",
       "coordinates":  [ 13.39455,52.50395 ]
    },
    "properties": {
    "id":"_18kyb52y2",
    "artdtsch":"Sand-Birke",
    "gattungdeutsch":"BIRKE",
    "strname":"unbekannte Straße",
    "hausnr":"unbekannte Nummer",
    "standortnr":"00043",
    "pflanzjahr":1994,
    "standalter":"25",
    "bezirk":"Friedrichshain-Kreuzberg",
    "wassermenge":50,
    "wassersumme":200,
    "anzahlG":4
    }
  },
  {
    "type": "Feature",
    "geometry": {
       "type": "Point",
       "coordinates":  [ 13.34221,52.52808 ]
    },