id,lat,lng,artdtsch,gattungdeutsch,strname,hausnr,standortnr,pflanzjahr,standalter,bezirk,zeit,wassermenge,wassersumme
_00l734zv4,13.52865,52.48706,Birken-Pappel,PAPPEL,Rheingoldstraße,45,31SB23,1965.0,54,Lichtenberg,2020-05-22 11:49:01.492546+00,25,60
_013bn7mt5,13.33245,52.44031999999999,Spitz-Ahorn,AHORN,Calandrellistraße,ggü.19,830,2013.0,6,Steglitz-Zehlendorf,2020-05-20 15:12:04.070531+00,25,100
_01b8pwi8h,13.36696,52.50034,Spitz-Ahorn,AHORN,Pohlstraße,35,219620,2010.0,9,Mitte,2020-06-03 17:30:20.34939+00,10,10
_01e1gmep9,13.37515,52.55373,Krim-Linde,LINDE,Exerzierstraße,11,30588,2003.0,16,Mitte,2020-09-02 13:29:11.31918+00,50,150
_01jcl3rr4,13.43166,52.491440000000004,Robinie,ROBINIE,Manitiusstraße,6,2931,2004.0,15,Neukölln,2020-06-01 18:21:54.802575+00,50,120
_02b1wm4xq,13.331010000000001,52.4651,Sommer-Linde,LINDE,Peschkestraße,6,003432,1980.0,39,Steglitz-Zehlendorf,2020-05-26 20:40:50.394686+00,10,770
_02phtjem2,13.38766,52.530409999999996,Weidenblättrige Birne,BIRNE,Schlegelstraße,12,191600,1998.0,21,Mitte,2020-08-16 20:30:28.242157+00,50,50
_02qnujqgt,13.429129999999999,52.500859999999996,Echte Mehlbeere,MEHLBEERE,Waldemarstraße,118,04669,1953.0,66,Friedrichshain-Kreuzberg,2020-07-12 12:32:58.795659+00,50,50
_02wmcyq3w,13.343760000000001,52.49071,"Sommer-Eiche, Stiel-Eiche",EICHE,Berchtesgadener Straße,34,17650,1996.0,23,Tempelhof-Schöneberg,2020-06-16 11:19:43.69581+00,50,50
_02z9hlxyd,13.307220000000001,52.4177,Winter-Linde,LINDE,Schwatlostraße,17,4075,1987.0,32,Steglitz-Zehlendorf,2020-05-25 07:34:48.378854+00,25,25
_02zhpy38p,13.30896,52.44753000000001,Winter-Linde 'Greenspire',LINDE,Gardeschützenweg,50,001473,2015.0,4,Steglitz-Zehlendorf,2020-08-17 19:04:30.462936+00,50,50
_03vg9bw9p,13.45798,52.522909999999996,Rotblühende Rosskastanie,ROSSKASTANIE,undefined,undefined,80101,2007.0,12,Pankow,2020-08-17 18:45:10.737438+00,25,35
_04augqyv9,13.34213,52.49734,Silber-Linde,LINDE,Geisbergstraße,9,17876,1992.0,27,Tempelhof-Schöneberg,2020-08-16 08:02:29.686303+00,10,10
_04daazmfq,13.30352,52.51472,"Oxelbeere, Schwedische Mehlbeere",MEHLBEERE,Thrasoltstraße,24,04481,1987.0,32,Charlottenburg-Wilmersdorf,2020-05-19 17:27:01.835728+00,10,10
_04gn9czjf,13.338820000000002,52.523869999999995,Säulen-Weiss-Dorn,WEIßDORN,Essener Straße,10,224320,2013.0,6,Mitte,2020-05-20 12:00:34.830939+00,10,50
_04trbjphq,13.226370000000001,52.58684,Pyramiden-Eiche,EICHE,Sandhauser Straße,10,03884-Str,2018.0,1,Reinickendorf,2020-08-12 17:43:58.146773+00,25,75
_058i9vpka,13.46231,52.549009999999996,Winter-Linde 'Greenspire',LINDE,Solonplatz,undefined,42719,2002.0,17,Pankow,2020-05-21 12:23:10.99035+00,25,160
_05lvmfaqx,13.33425,52.488459999999996,Amerikanische Linde,LINDE,Helmstedter Straße,15,01932,1986.0,33,Charlottenburg-Wilmersdorf,2020-05-24 19:56:02.650421+00,5,5
_05qydx69h,13.41584,52.492709999999995,Ahornblättrige Platane,PLATANE,Dieffenbachstraße,undefined,00967,1949.0,70,Friedrichshain-Kreuzberg,2020-05-21 14:21:36.875088+00,5,30
_06vwh0ibn,13.34726,52.54694,Hainbuche,HAINBUCHE,Lütticher Straße,3,372700,1982.0,37,Mitte,2020-06-13 20:01:44.531156+00,50,150
_076q78cix,13.449829999999999,52.44798,"Berg-Ahorn, Weiss-Ahorn",AHORN,Fritz-Reuter-Allee,48,1414,2012.0,7,Neukölln,2020-05-21 09:40:22.552434+00,25,25
_07d8l3fj0,13.447989999999999,52.4927,Winter-Linde 'Greenspire',LINDE,Kiefholzstraße,undefined,10294,2000.0,19,Treptow-Köpenick,2020-06-14 18:09:46.476491+00,5,20
_07tclwgim,13.4693,52.51745,Rot-/Weißdorn,WEIßDORN,undefined,undefined,60114,1979.0,40,Friedrichshain-Kreuzberg,2020-05-22 05:23:46.44907+00,10,160
_081g77wmk,13.43816,52.46677,Linde,LINDE,Bruno-Bauer-Straße,2,,1982.0,37,Neukölln,2020-08-10 19:39:30.800069+00,50,50
_082rqo5md,13.337470000000001,52.48678,Echter Rotdorn,WEIßDORN,Bozener Straße,9,17895,1985.0,34,Tempelhof-Schöneberg,2020-06-05 19:02:36.03537+00,50,50
_089aeb6lq,13.35741,52.520959999999995,"Oxelbeere, Schwedische Mehlbeere",MEHLBEERE,Flemingstraße,5,241500,1985.0,34,Mitte,2020-06-10 15:57:10.929093+00,10,10
_08iaqjvj3,13.346779999999999,52.48751,Sand-Birke,BIRKE,undefined,undefined,17235.0,1984.0,35,Tempelhof-Schöneberg,2020-06-12 14:07:45.015152+00,50,200
_08jep54wb,13.29839,52.43659,Spitz-Ahorn,AHORN,Holbeinstraße,1,002061,1981.0,38,Steglitz-Zehlendorf,2020-07-31 18:03:06.984688+00,25,25
_08tqdlu0i,13.36907,52.490030000000004,Sommer-Linde,LINDE,Hochkirchstraße,13,17678,1965.0,54,Tempelhof-Schöneberg,2020-08-16 20:09:37.729633+00,10,10
_09atbs6l0,13.447579999999999,52.492869999999996,Winter-Linde,LINDE,Kiefholzstraße,undefined,010294,1952.0,67,Treptow-Köpenick,2020-06-14 18:10:35.443368+00,5,20
_09rjx9inu,13.43715,52.49051,Winter-Linde,LINDE,Maybachufer,0,3021,1995.0,24,Neukölln,2020-06-23 19:41:31.315052+00,50,355
_0a9pydq8k,13.5317,52.490680000000005,Winter-Linde,LINDE,Rudolf-Grosse-Straße,undefined,31SB31,1965.0,54,Lichtenberg,2020-05-25 13:42:58.211097+00,50,200
_0ah3lj6lm,13.420379999999998,52.50581999999999,Holländische Linde,LINDE,Engeldamm,70,172100,1992.0,27,Mitte,2020-08-09 20:39:50.286778+00,50,100
_0ay5asa8z,13.314179999999999,52.50747,Winter-Linde,LINDE,Leibnizstraße,31,02732,1986.0,33,Charlottenburg-Wilmersdorf,2020-08-15 20:48:51.745877+00,50,150
_0b4ai70hy,13.46504,52.51821999999999,"Berg-Ahorn, Weiss-Ahorn",AHORN,undefined,undefined,60114,1980.0,39,Friedrichshain-Kreuzberg,2020-07-24 05:11:52.179253+00,50,300
_0baoa0xuf,13.31441,52.49564,Silber-Linde,LINDE,Zähringerstraße,35,04983,1925.0,94,Charlottenburg-Wilmersdorf,2020-08-09 20:12:31.410148+00,25,95
_0btudcb3j,13.33165,52.46488000000001,Sommer-Linde,LINDE,Peschkestraße,8,003432,1991.0,28,Steglitz-Zehlendorf,2020-09-13 07:04:32.335892+00,10,40
_0by6os3q4,13.311370000000002,52.50789,Pyramiden-Eiche,EICHE,Pestalozzistraße,undefined,03433,1981.0,38,Charlottenburg-Wilmersdorf,2020-08-11 21:47:55.699634+00,25,210
_0c6yrlpow,13.27811,52.634519999999995,Echte Mehlbeere,MEHLBEERE,Münchener Straße,3,03151-Str,1968.0,51,Reinickendorf,2020-05-20 16:36:36.309227+00,50,100
_0ckgll3uo,13.45243,52.47448000000001,"Berg-Ahorn, Weiss-Ahorn",AHORN,Brusendorfer Straße,24,772,1985.0,34,Neukölln,2020-06-27 23:00:00.446029+00,50,150
_0ctyc0uvr,13.32666,52.46705,Gemeine Rosskastanie,ROSSKASTANIE,Fröaufstraße,7,17884,1987.0,32,Tempelhof-Schöneberg,2020-08-08 18:44:49.236978+00,50,100
_0dic7zi8v,13.4255,52.54789,Spitz-Ahorn 'Cleveland',AHORN,Dunckerstraße,undefined,40647,2000.0,19,Pankow,2020-08-14 18:00:53.220654+00,10,10
_0dihdt89g,13.367070000000002,52.501180000000005,Spitz-Ahorn,AHORN,Körnerstraße,18,243200,2010.0,9,Mitte,2020-06-25 21:57:42.646721+00,25,25
_0dydona3y,13.426039999999999,52.4909,Winter-Linde,LINDE,Hobrechtstraße,58,2012,1980.0,39,Neukölln,2020-08-10 08:03:16.479986+00,25,25
_0e2ln1d1t,13.42671,52.46382,Robinie,ROBINIE,Mariendorfer Weg,48,2961,2000.0,19,Neukölln,2020-05-25 11:28:15.1955+00,5,20
_0e5v4bb1t,13.45776,52.54674,Winter-Linde,LINDE,Gounodstraße,undefined,41056,1941.0,78,Pankow,2020-08-10 18:08:49.725275+00,50,200
_0enbnsrkf,13.463679999999998,52.518530000000005,Pflaumenblättriger Weiss-Dorn,WEIßDORN,undefined,undefined,60114,2016.0,3,Friedrichshain-Kreuzberg,2020-07-24 05:02:39.912138+00,50,300
_0epuygrgg,13.529229999999998,52.49065,Säulen-Rot-Ahorn,AHORN,Rheinpfalzallee,undefined,31SB24,2017.0,2,Lichtenberg,2020-05-22 08:07:34.288821+00,50,50
_0es7q89bu,13.481589999999999,52.49953000000001,Spitz-Ahorn,AHORN,Schlichtallee,undefined,29SB16,1965.0,54,Lichtenberg,2020-05-31 08:40:58.514535+00,25,100
_0eymialcm,13.43416,52.516909999999996,Österreichische Schwarzkiefer,KIEFER,undefined,undefined,60412,1985.0,34,Friedrichshain-Kreuzberg,2020-06-16 08:48:54.54177+00,5,5
_0fpr74jfu,13.463,52.51439,Amberbaum,AMBERBAUM,Mainzer Straße,undefined,MAINZER,2013.0,6,Friedrichshain-Kreuzberg,2020-07-07 18:06:45.253966+00,50,50
_0g4tw75op,13.38309,52.561780000000006,Zierapfel 'Evereste',APFEL,Fordoner Straße,5,361801,2014.0,5,Mitte,2020-09-07 13:22:05.683478+00,50,150
_0g5io5lma,13.4667,52.51716999999999,Chinesische Wild-Birne,BIRNE,Schreinerstraße,undefined,SCHREIN,1999.0,20,Friedrichshain-Kreuzberg,2020-05-26 17:01:09.317492+00,10,70
_0gfxxlipm,13.34264,52.46941999999999,"Berg-Ahorn, Weiss-Ahorn",AHORN,Begasstraße,3,17897,1988.0,31,Tempelhof-Schöneberg,2020-08-08 21:20:17.214478+00,50,250
_0gwn4m9ny,13.403920000000001,52.50937,Säulenförmiger Spitz-Ahorn,AHORN,Seydelstraße,12,193100,2016.0,3,Mitte,2020-08-16 18:09:07.833955+00,10,60
_0h8r7jn5j,13.447870000000002,52.486430000000006,Italienische Pyramiden-Pappel,PAPPEL,undefined,undefined,414.900,2014.0,5,Neukölln,2020-05-20 18:24:54.496691+00,50,50
_0hjk0kr2x,13.33295,52.48976,Sommer-Linde,LINDE,Prinzregentenstraße,11,03545,1977.0,42,Charlottenburg-Wilmersdorf,2020-08-13 13:52:37.063734+00,25,75
_0ho9jps4d,13.41729,52.50066999999999,Kleinkronige Winter-Linde,LINDE,Dresdener Straße,undefined,06096,2009.0,10,Friedrichshain-Kreuzberg,2020-06-06 11:09:51.571108+00,50,50
_0hy56eioe,13.37023,52.54178,Großblättrige Sommerlinde,LINDE,Schönwalder Straße,17,364400,2015.0,4,Mitte,2020-09-22 11:41:34.782141+00,50,150
_0hzgized3,13.39342,52.38885,Baum-Hasel,HASEL,Wünsdorfer Straße,94,4957,2013.0,6,Tempelhof-Schöneberg,2020-08-12 13:03:45.970923+00,10,10
_0i4splnrb,13.253329999999998,52.52081,Winter-Linde,LINDE,Westendallee,76,04813,1950.0,69,Charlottenburg-Wilmersdorf,2020-06-29 17:27:41.68867+00,25,75
_0iakdelxm,13.41325,52.553999999999995,Winter-Linde,LINDE,Bornholmer Straße,undefined,06087,1993.0,26,Pankow,2020-08-17 12:47:56.413712+00,50,50
_0j0s58dnh,13.32448,52.59265,Gemeine Rosskastanie,ROSSKASTANIE,undefined,undefined,00998,1890.0,129,Reinickendorf,2020-08-23 16:47:38.56933+00,50,50
_0j3uswo9v,13.30275,52.516180000000006,Winter-Linde 'Greenspire',LINDE,Gierkezeile,38,01552,2005.0,14,Charlottenburg-Wilmersdorf,2020-05-19 14:06:01.638153+00,50,325
_0jbrwy1ic,13.3789,52.491690000000006,Echter Rotdorn,WEIßDORN,Yorckstraße,undefined,04977,2009.0,10,Friedrichshain-Kreuzberg,2020-06-11 11:05:19.340088+00,50,300
_0jifekn6p,13.44788,52.49275,Winter-Linde 'Greenspire',LINDE,Kiefholzstraße,undefined,10294,2000.0,19,Treptow-Köpenick,2020-06-14 18:10:08.42384+00,5,20
_0jigg4bce,13.428729999999998,52.49018,Winter-Linde,LINDE,Lenaustraße,14,2738,1975.0,44,Neukölln,2020-08-08 15:36:13.867573+00,5,5
_0k3xbmekx,13.52885,52.48175,Silber-Linde,LINDE,Drachenfelsstraße,7,31SB07,2004.0,15,Lichtenberg,2020-07-19 21:00:26.093471+00,25,160
_0k5bg6f5h,13.47081,52.51718,Pflaumenblättriger Weiss-Dorn,WEIßDORN,undefined,undefined,60114,2013.0,6,Friedrichshain-Kreuzberg,2020-05-22 05:26:00.286664+00,10,160
_0ka0gs97a,13.52946,52.47891,Winter-Linde,LINDE,Am Carlsgarten,undefined,32SB01,2008.0,11,Lichtenberg,2020-07-20 09:19:27.092161+00,50,200
_0kg90fx24,13.40385,52.55348000000001,Säulenförmiger Spitz-Ahorn,AHORN,Czarnikauer Straße,undefined,40535,2016.0,3,Pankow,2020-06-18 18:27:41.777325+00,5,55
_0kxgnjhap,13.332970000000001,52.50167,Japanischer Schnurbaum,undefined,Rankestraße,24,03598,2005.0,14,Charlottenburg-Wilmersdorf,2020-06-27 06:10:15.406366+00,50,880
_0lmh6v8cg,13.3123,52.46276999999999,Winter-Linde,LINDE,Paulsenstraße,45a,3419,1945.0,74,Steglitz-Zehlendorf,2020-05-22 11:09:28.931762+00,50,50
_0ln1hhgfw,13.378429999999998,52.458780000000004,Spitz-Ahorn,AHORN,Friedrich-Wilhelm-Straße,30,1404,1964.0,55,Tempelhof-Schöneberg,2020-08-13 18:10:31.368877+00,25,25
_0lo5xxm44,13.41041,52.55146,Hainbuche,HAINBUCHE,Seelower Straße,undefined,42665,1980.0,39,Pankow,2020-06-06 11:19:43.477584+00,50,200
_0m2quj2tw,13.31119,52.501059999999995,Ahornblättrige Platane,PLATANE,Giesebrechtstraße,9,01553,1970.0,49,Charlottenburg-Wilmersdorf,2020-06-04 12:11:39.951069+00,25,25
_0mr76syp2,13.324470000000002,52.46771999999999,Spitz-Ahorn,AHORN,Odenwaldstraße,21,17838,2000.0,19,Tempelhof-Schöneberg,2020-06-10 15:35:04.708464+00,50,200
_0mwbjys3l,13.32286,52.47513000000001,"Berg-Ahorn, Weiss-Ahorn",AHORN,Offenbacher Straße,30,17716,1963.0,56,Tempelhof-Schöneberg,2020-08-23 16:50:32.334469+00,25,25
_0nfzb88ek,13.26569,52.53655,Feld-Ulme,ULME,Nonnendammallee,80,03260-Str,1936.0,83,Spandau,2020-05-19 15:49:32.77747+00,25,125
_0o6jj9ar4,13.42668,52.4953,Spitz-Ahorn,AHORN,Lausitzer Straße,undefined,02720,1982.0,37,Friedrichshain-Kreuzberg,2020-09-19 14:37:45.757035+00,50,50
_0o802b2fu,13.4047,52.54914,Rot-Ahorn,AHORN,Ystader Straße,undefined,43635,2012.0,7,Pankow,2020-08-19 20:45:13.857273+00,5,455
_0o8s33g6o,13.458820000000001,52.52276,Rotblühende Rosskastanie,ROSSKASTANIE,undefined,undefined,80101,2007.0,12,Pankow,2020-09-13 16:10:32.032893+00,50,80
_0ok0gewb6,13.302579999999999,52.505669999999995,Winter-Linde,LINDE,Kaiser-Friedrich-Straße,ggü. 54A,02288,1992.0,27,Charlottenburg-Wilmersdorf,2020-08-13 11:42:59.516041+00,50,100
_0onf9fwqe,13.3418,52.528169999999996,Hainbuche,HAINBUCHE,Bugenhagenstraße,10,221020,1980.0,39,Mitte,2020-05-21 21:40:27.516991+00,5,105
_0ow2qovmd,13.33421,52.490230000000004,Robinie,ROBINIE,Helmstedter Straße,7,01932,1966.0,53,Charlottenburg-Wilmersdorf,2020-06-26 08:48:02.333127+00,25,375
_0p12jwio5,13.52975,52.4901,Eschen-Ahorn,AHORN,Rheinpfalzallee,undefined,31SB24,1965.0,54,Lichtenberg,2020-08-04 07:30:23.704303+00,50,150
_0pvr79163,13.37375,52.47275,Japanische Zierkirsche 'Kanzan',undefined,Hoeppnerstraße,80,2037,2018.0,1,Tempelhof-Schöneberg,2020-08-08 18:57:26.777178+00,50,350
_0pzr6bhao,13.31931,52.59015,"Sommer-Eiche, Stiel-Eiche",EICHE,Triftstraße,68,04550-Str,2016.0,3,Reinickendorf,2021-04-10 18:21:07.168845+00,10,20
_0q86h5dbp,13.52808,52.490790000000004,Kleinkronige Winter-Linde,LINDE,Treskowallee,undefined,31SB37,2013.0,6,Lichtenberg,2020-08-13 10:02:02.863359+00,25,75
_0qbmon4dp,13.46631,52.50581,Linde,LINDE,Sonntagstraße,undefined,SONNTAGS,2018.0,0,Friedrichshain-Kreuzberg,2020-08-17 08:04:18.170487+00,25,25
_0qjy2jpkp,13.32748,52.467130000000004,Gemeine Rosskastanie,ROSSKASTANIE,Fröaufstraße,2,17884,1998.0,21,Tempelhof-Schöneberg,2020-07-03 06:36:31.885398+00,50,720
_0qo6fzdx6,13.443470000000001,52.486880000000006,Winter-Linde,LINDE,Bouchéstraße,45,6088,1972.0,47,Neukölln,2020-08-07 20:22:23.202929+00,25,150
_0qwnkia0b,13.328370000000001,52.47935,Spitz-Ahorn,AHORN,Bundesplatz,undefined,06945,1966.0,53,Charlottenburg-Wilmersdorf,2020-06-24 17:28:01.068806+00,10,10
_0rdnm505q,13.33274,52.44022,Eingriffliger Weissdorn,WEIßDORN,Mozartstraße,undefined,003135,1999.0,20,Steglitz-Zehlendorf,2020-05-20 15:11:38.762591+00,25,25
_0rnp551xl,13.31417,52.5074,Kaiser-Linde,LINDE,Leibnizstraße,31,02732,1987.0,32,Charlottenburg-Wilmersdorf,2020-08-15 20:49:04.769712+00,50,150
_0rssasrtu,13.326189999999999,52.52644,"Berg-Ahorn, Weiss-Ahorn",AHORN,Erasmusstraße,7,241300,1990.0,29,Mitte,2020-05-23 12:17:37.256116+00,50,400
_0rwkpapy0,13.43002,52.48791,Winter-Linde,LINDE,Weserstraße,14,4809,1985.0,34,Neukölln,2020-06-16 18:26:27.835855+00,10,45
_0rwo0x5m0,13.43864,52.535140000000006,Winter-Linde,LINDE,Bötzowstraße,undefined,40403,2011.0,8,Pankow,2020-08-13 20:23:12.240446+00,50,50
_0rzxesfwp,13.32412,52.47598000000001,Geschlitzter Silber-Ahorn,AHORN,Stubenrauchstraße,35,17819,1920.0,99,Tempelhof-Schöneberg,2020-06-16 09:03:17.867047+00,50,570
_0s50r0vup,13.315629999999999,52.454319999999996,Rotblühende Rosskastanie,ROSSKASTANIE,Wulffstraße,14,4964,2015.0,4,Steglitz-Zehlendorf,2020-07-12 18:49:40.872272+00,25,250
_0s92sfqet,13.52343,52.484880000000004,Winter-Linde,LINDE,Dorotheastraße,undefined,30SB04,1975.0,44,Lichtenberg,2020-06-19 05:12:02.515637+00,50,50
_0snjhupqr,13.26835,52.509969999999996,Rotblühende Rosskastanie,ROSSKASTANIE,Kastanienallee,22,02345,2003.0,16,Charlottenburg-Wilmersdorf,2020-08-06 11:16:23.335353+00,25,25
_0sp6elv7r,13.499170000000001,52.57115,Dreidorniger Lederhülsenbaum,GLEDITSCHIE,Ribnitzer Straße,undefined,08SB04,1990.0,29,Lichtenberg,2020-05-19 16:05:47.603333+00,5,55
_0spgwq0l6,13.38318,52.558569999999996,Japanische Zierkirsche 'Kanzan',undefined,undefined,undefined,301010,1995.0,24,Mitte,2020-09-01 12:37:35.103467+00,50,250
_0tpanx7tx,13.52475,52.56469,Spitz-Ahorn,AHORN,Vincent-van-Gogh-Straße,undefined,04SB06,1995.0,24,Lichtenberg,2020-06-04 17:01:33.153632+00,5,5
_0ttgy2y5n,13.418510000000001,52.55453000000001,Kaiser-Linde,LINDE,Trelleborger Straße,undefined,43338,2004.0,15,Pankow,2020-06-02 17:27:45.809834+00,25,55
_0tzn2jpd8,13.38229,52.46781,Sommer-Linde,LINDE,Sennockstraße,19,4146,1992.0,27,Tempelhof-Schöneberg,2020-06-02 17:31:01.322554+00,10,70
_0u326rtd9,13.344320000000002,52.4653,Winter-Linde,LINDE,Rubensstraße,106,17730,1977.0,42,Tempelhof-Schöneberg,2020-06-11 21:55:45.121164+00,10,50
_0ucitg079,13.32959,52.46454,Baum-Hasel,HASEL,Schöneberger Straße,14,3999,2000.0,19,Steglitz-Zehlendorf,2020-06-03 16:15:40.805794+00,25,25
_0v62o4iwe,13.44341,52.48678,Winter-Linde,LINDE,Bouchéstraße,53,6088,1980.0,39,Neukölln,2020-08-14 07:40:05.371533+00,50,150
_0vosg1zpf,13.31655,52.41825,Resista Ulme 'Rebona',ULME,Blanckertzweg,undefined,000598,2019.0,0,Steglitz-Zehlendorf,2020-06-14 12:02:28.98997+00,50,325
_0wainrptp,13.415560000000001,52.5017,Silber-Linde,LINDE,undefined,undefined,50036,1921.0,98,Friedrichshain-Kreuzberg,2020-06-06 11:13:32.272105+00,10,10
_0wbmtvij1,13.29902,52.51696999999999,Spitz-Ahorn,AHORN,Schustehrusstraße,31-41,04054,1980.0,39,Charlottenburg-Wilmersdorf,2020-06-01 08:17:00.232918+00,10,10
_0wcm4yusz,13.375329999999998,52.55249,Winter-Linde,LINDE,Uferstraße,23,378400,1967.0,52,Mitte,2020-08-24 10:07:18.043876+00,50,300
_0wl97wynv,13.389289999999999,52.58696,Kleinkronige Winter-Linde,LINDE,Friedrich-Engels-Straße,undefined,40899,2014.0,5,Pankow,2020-06-01 12:03:06.953881+00,25,25
_0wlder2hg,13.436729999999999,52.49785,Gewöhnliche Esche,ESCHE,Görlitzer Straße,undefined,01596,1972.0,47,Friedrichshain-Kreuzberg,2020-07-11 20:29:11.22766+00,25,25
_0wo72t512,13.4359,52.51939,"Berg-Ahorn, Weiss-Ahorn",AHORN,undefined,undefined,60136,1980.0,39,Friedrichshain-Kreuzberg,2020-08-19 08:48:02.598625+00,50,50
_0x312epz8,13.44541,52.480259999999994,Linde,LINDE,Stuttgarter Straße,54,,1985.0,34,Neukölln,2020-05-19 14:26:31.036083+00,10,120
_0x45kkdcd,13.511270000000001,52.43643,Gefuelltblühende Vogelkirsche,undefined,Hanuschkestraße,undefined,040174,2007.0,12,Treptow-Köpenick,2020-05-20 20:03:12.242133+00,50,600
_0x5h1lym8,13.38766,52.48396999999999,"Sommer-Eiche, Stiel-Eiche",EICHE,Platz der Luftbrücke,4,7114,1968.0,51,Tempelhof-Schöneberg,2020-05-20 08:02:43.175208+00,25,25
_0x89ya2xa,13.30292,52.52404,Ahornblättrige Platane,PLATANE,Mierendorffstraße,24,03074,1969.0,50,Charlottenburg-Wilmersdorf,2020-06-10 19:46:50.117638+00,50,50
_0xcxyode8,13.5157,52.48483,Ahornblättrige Platane,PLATANE,Grimnitzstraße,undefined,32SB14,1983.0,36,Lichtenberg,2020-06-04 18:09:57.722802+00,25,25
_0xkog8few,13.361270000000001,52.501430000000006,Kleinkronige Winter-Linde,LINDE,Pohlstraße,87,219620,2006.0,13,Mitte,2020-05-22 17:28:03.475613+00,25,75
_0xxngzmi6,13.429179999999999,52.535109999999996,Rot-Ahorn,AHORN,Christburger Straße,undefined,40518,1999.0,20,Pankow,2020-05-22 05:48:07.016854+00,25,25
_0xy1e7qnf,13.311689999999999,52.5009,Ahornblättrige Platane,PLATANE,Giesebrechtstraße,10,01553,1961.0,58,Charlottenburg-Wilmersdorf,2020-06-05 08:47:28.292624+00,50,50
_0y07y02ve,13.46894,52.51801,Winter-Linde,LINDE,Voigtstraße,undefined,VOIGT,1999.0,20,Friedrichshain-Kreuzberg,2020-07-19 20:10:27.368191+00,25,25
_0z18m4yx5,13.37369,52.53091,Holländische Linde,LINDE,Scharnhorststraße,1,191000,1962.0,57,Mitte,2020-05-22 10:29:50.462429+00,50,350
_0zewj6ts3,13.468370000000002,52.512330000000006,Kaiser-Linde,LINDE,Finowstraße,32,FINOWSTR,2015.0,4,Friedrichshain-Kreuzberg,2020-07-19 13:07:56.209095+00,25,25
_0zpicnlyz,13.354220000000002,52.542790000000004,Feld-Ulme,ULME,Triftstraße,50,30668,1960.0,59,Mitte,2020-05-19 19:36:42.727828+00,10,35
_0zr0js07f,13.348220000000001,52.554019999999994,Winter-Linde,LINDE,Türkenstraße,22,30574,1970.0,49,Mitte,2020-06-05 20:05:04.685738+00,5,5
_0zzl0dhmk,13.466429999999999,52.551069999999996,Ahornblättrige Platane,PLATANE,Indira-Gandhi-Straße,undefined,41774,1992.0,27,Pankow,2020-05-26 14:40:54.152241+00,10,45
_109wef9fp,13.45495,52.523709999999994,Winter-Linde 'Greenspire',LINDE,Hausburgstraße,undefined,HAUSBURG,1998.0,21,Friedrichshain-Kreuzberg,2020-05-24 14:52:58.308201+00,50,50
_10j814pnp,13.414629999999999,52.544380000000004,Esche,ESCHE,Greifenhagener Straße,undefined,41076,2003.0,16,Pankow,2020-07-07 13:38:56.471736+00,50,155
_10m2pvjkh,13.34821,52.493669999999995,Gemeine Rosskastanie,ROSSKASTANIE,Lindauer Straße,undefined,17694,1942.0,77,Tempelhof-Schöneberg,2020-07-08 09:22:16.733875+00,50,1550
_10tcyrl4p,13.46306,52.50625,Krim-Linde,LINDE,Simplonstraße,undefined,SIMPLONS,1953.0,66,Friedrichshain-Kreuzberg,2020-06-12 19:06:08.687559+00,50,100
_10wlh556w,13.31642,52.47583,Amerikanische Linde,LINDE,Offenbacher Straße,16,03302,1979.0,40,Charlottenburg-Wilmersdorf,2020-05-22 14:16:55.148657+00,25,90
_110wm1hiu,13.474479999999998,52.5044,Winter-Linde,LINDE,Schreiberhauer Straße,undefined,,2002.0,17,Lichtenberg,2020-08-09 11:19:35.193917+00,25,185
_111nperl7,13.3249,52.49114,"Sommer-Eiche, Stiel-Eiche",EICHE,Holsteinische Straße,19,02067,1995.0,24,Charlottenburg-Wilmersdorf,2020-07-10 17:35:45.884353+00,25,25
_11bi2x2n3,13.475729999999999,52.505959999999995,Winter-Linde,LINDE,Schreiberhauer Straße,undefined,23SB11,2002.0,17,Lichtenberg,2020-08-16 21:16:03.888678+00,10,10
_1251kc0a0,13.41196,52.542519999999996,Winter-Linde,LINDE,Schönhauser Allee,undefined,42616,1994.0,25,Pankow,2020-05-20 19:35:43.447343+00,25,100
_12egnlo90,13.381739999999999,52.491569999999996,Rot-/Weißdorn,WEIßDORN,Hagelberger Straße,undefined,01792,2003.0,16,Friedrichshain-Kreuzberg,2020-08-21 02:52:25.662112+00,50,75
_12ne706r2,13.47855,52.50365,Spitz-Ahorn,AHORN,Spittastraße,31/33,23SB12,2008.0,11,Lichtenberg,2020-05-20 10:11:14.347324+00,50,350
_12riwyzop,13.393220000000001,52.494,Chinesische Wild-Birne,BIRNE,Solmsstraße,undefined,04212,2007.0,12,Friedrichshain-Kreuzberg,2020-05-20 17:17:16.374638+00,10,10
_12x822k4t,13.51162,52.436409999999995,Gefuelltblühende Vogelkirsche,undefined,Hanuschkestraße,undefined,040174,2007.0,12,Treptow-Köpenick,2020-05-20 20:02:49.046544+00,50,600
_12y00a47h,13.304879999999999,52.49365,Spitz-Ahorn,AHORN,Eisenzahnstraße,50,01110,1979.0,40,Charlottenburg-Wilmersdorf,2020-06-01 19:28:11.477373+00,50,100
_135cht5hp,13.3396,52.523559999999996,Säulen-Weiss-Dorn,WEIßDORN,Krefelder Straße,8,243400,2015.0,4,Mitte,2020-05-21 17:56:47.992784+00,50,125
_13ar45ajk,13.46548,52.5182,Spitz-Ahorn,AHORN,undefined,undefined,60114,1971.0,48,Friedrichshain-Kreuzberg,2020-05-21 22:28:15.410568+00,10,220
_13f8iyjph,13.42125,52.556219999999996,Winter-Linde 'Greenspire',LINDE,Eschengraben,undefined,40768,2005.0,14,Pankow,2020-08-17 08:23:07.241993+00,50,275
_13rdtiwdv,13.3565,52.49096,Japanische Zierkirsche 'Kanzan',undefined,Elßholzstraße,29,17888,2017.0,2,Tempelhof-Schöneberg,2020-12-05 17:42:14.997569+00,10,50
_1444mfd4i,13.494979999999998,52.51589,Sommer-Linde,LINDE,Hubertusstraße,undefined,21SB20,1999.0,20,Lichtenberg,2020-08-06 15:50:54.042195+00,50,335
_14eg3wyct,13.36241,52.491009999999996,Kaiser-Linde,LINDE,Neue Steinmetzstraße,6,17707,1994.0,25,Tempelhof-Schöneberg,2020-08-02 09:02:32.933804+00,50,210
_14jlo7y0l,13.41131,52.542730000000006,Gemeine Rosskastanie,ROSSKASTANIE,undefined,undefined,70553,1938.0,81,Pankow,2020-05-20 19:37:53.813706+00,10,135
_14phuqic0,13.36191,52.48848,Kaiser-Linde,LINDE,Crellestraße,34,17892,1986.0,33,Tempelhof-Schöneberg,2020-08-20 10:09:09.998236+00,10,35
_14zvtxwtl,13.356879999999999,52.55211,Säulen-Weiss-Dorn,WEIßDORN,Malplaquetstraße,23,30617,2013.0,6,Mitte,2020-06-05 16:35:36.588953+00,10,10
_156c0mra2,13.35866,52.5344,Spitz-Ahorn,AHORN,Lehrter Straße,54,222520,1986.0,33,Mitte,2020-06-28 10:34:11.774411+00,10,160
_15kzta93r,13.3476,52.53986,Japan-Birke,BIRKE,Buchstraße,7,366700,1973.0,46,Mitte,2020-06-17 15:54:06.47502+00,10,45
_15y3dir97,13.41412,52.49971,Ahornblättrige Platane,PLATANE,Erkelenzdamm,undefined,01183,1924.0,95,Friedrichshain-Kreuzberg,2020-06-02 10:32:31.733051+00,25,55
_1619150pl,13.35465,52.54286,Winter-Linde,LINDE,Triftstraße,52,30668,2005.0,14,Mitte,2020-05-21 18:29:31.040755+00,25,25
_162a2vacx,13.36664,52.50076,Einblattakazie,ROBINIE,Körnerstraße,12,243200,1985.0,34,Mitte,2020-06-17 17:38:15.508717+00,25,25
_162tuhhlk,13.33409,52.47543,Gewöhnliche Esche,ESCHE,Perelsplatz,14,17786,1999.0,20,Tempelhof-Schöneberg,2020-06-20 15:04:32.448307+00,50,80
_1663bo6gb,13.31601,52.47328,Holländische Linde,LINDE,Rüdesheimer Platz,GEGÜ.3,07132,1955.0,64,Charlottenburg-Wilmersdorf,2020-05-29 17:13:00.732039+00,50,250
_1696q5tb4,13.31991,52.51704,Spitz-Ahorn 'Emerald Queen',AHORN,Guerickestraße,undefined,01741,2004.0,15,Charlottenburg-Wilmersdorf,2020-08-07 07:20:53.708006+00,10,420
_16ieu9u8d,13.334220000000002,52.489940000000004,Amerikanische Linde,LINDE,Helmstedter Straße,9,01932,1986.0,33,Charlottenburg-Wilmersdorf,2020-08-16 11:12:18.790409+00,25,25
_16ihb69q0,13.39661,52.53397,Holländische Linde,LINDE,Strelitzer Straße,4,194300,1980.0,39,Mitte,2020-06-23 12:56:31.457518+00,10,10
_16o6tu3ey,13.41335,52.553999999999995,Winter-Linde,LINDE,Bornholmer Straße,undefined,06087,1993.0,26,Pankow,2020-08-17 12:48:04.45613+00,50,50
_16obv9rz1,13.463020000000002,52.51859,Spitz-Ahorn,AHORN,undefined,undefined,60114,1980.0,39,Friedrichshain-Kreuzberg,2020-07-24 04:59:58.175617+00,50,300
_17jaawakm,13.408320000000002,52.540119999999995,"Gemeine Kiefer, Wald-Kiefer",KIEFER,undefined,undefined,79441,2012.0,7,Pankow,2020-08-14 15:38:33.277714+00,50,50
_17otq8ivi,13.497689999999999,52.51262,Ahornblättrige Platane,PLATANE,Siegfriedstraße,undefined,21SB47,1982.0,37,Lichtenberg,2020-08-12 19:40:07.429927+00,10,20
_17tnse0it,13.45246,52.51206,Kaiser-Linde,LINDE,Warschauer Straße,undefined,WARSCH,2007.0,12,Friedrichshain-Kreuzberg,2020-05-29 18:06:06.651302+00,50,50
_17wqwq80y,13.33508,52.47541999999999,Gewöhnliche Esche,ESCHE,Perelsplatz,18,17786,2006.0,13,Tempelhof-Schöneberg,2020-06-20 15:08:10.072855+00,50,150
_18hr823jc,13.43128,52.500690000000006,Linde,LINDE,Lausitzer Platz,undefined,07050,1956.0,63,Friedrichshain-Kreuzberg,2020-07-12 14:47:25.042875+00,50,50
_18kyb52y2,13.39455,52.50395,Sand-Birke,BIRKE,undefined,undefined,00043,1994.0,25,Friedrichshain-Kreuzberg,2020-08-15 16:24:56.270079+00,50,150
_18l3x6942,13.342210000000001,52.52808,Baum-Hasel,HASEL,Bugenhagenstraße,5,221020,1986.0,33,Mitte,2020-06-03 19:33:05.259373+00,25,50
_18lyst0vm,13.349639999999999,52.43448000000001,Winter-Linde,LINDE,Paul-Schneider-Straße,33,3418,1945.0,74,Steglitz-Zehlendorf,2020-05-27 21:30:12.98033+00,10,70
_18pzomrxf,13.3832,52.55862,Japanische Zierkirsche 'Kanzan',undefined,undefined,undefined,301010,1995.0,24,Mitte,2020-09-01 12:37:01.062168+00,50,350
_1910lnyxk,13.19788,52.55169,Baum-Hasel,HASEL,Eckschanze,20,01058-Str,2014.0,5,Spandau,2020-06-02 12:04:24.314522+00,10,35
_192g025z9,13.27297,52.63672,Hainbuche,HAINBUCHE,Laurinsteig,42,02719-Str,1985.0,34,Reinickendorf,2020-06-06 16:01:06.350814+00,10,10
_19lo1csxn,13.366929999999998,52.50094,Einblattakazie,ROBINIE,Körnerstraße,16,243200,1985.0,34,Mitte,2020-06-17 17:38:40.028524+00,25,75
_19nrvpkdl,13.396410000000001,52.56417,Linde,LINDE,Rettigweg,undefined,42392,1949.0,70,Pankow,2020-08-09 17:04:21.959642+00,50,50
_19wk66y3a,13.214620000000002,52.437819999999995,Sommer-Linde,LINDE,Matterhornstraße,57,3007,1955.0,64,Steglitz-Zehlendorf,2020-05-20 08:58:47.787517+00,10,10
_1a3xumto9,13.43926,52.46219,Winter-Linde,LINDE,undefined,undefined,325.024,,undefined,Neukölln,2020-10-09 08:10:15.136477+00,10,10
_1a57buain,13.45493,52.520880000000005,Rot-/Weißdorn,WEIßDORN,Thaerstraße,undefined,THAERSTR,1992.0,27,Friedrichshain-Kreuzberg,2020-05-31 10:14:32.977967+00,10,175
_1anoupfo6,13.39514,52.534380000000006,Winter-Linde,LINDE,Anklamer Straße,52,167600,1935.0,84,Mitte,2020-06-01 11:12:18.441692+00,25,25
_1arb0sylp,13.33833,52.486830000000005,Echter Rotdorn,WEIßDORN,Bozener Straße,17,17895,2007.0,12,Tempelhof-Schöneberg,2020-06-02 18:22:56.566267+00,50,100
_1arxfxvgn,13.480920000000001,52.49918,Schwarz-Ahorn 'Faassen's Black',AHORN,Schlichtallee,undefined,29SB16,1982.0,37,Lichtenberg,2020-05-20 06:58:17.562184+00,5,160
_1asppunfd,13.478620000000001,52.50374,Spitz-Ahorn,AHORN,Spittastraße,undefined,23SB12,1924.0,95,Lichtenberg,2020-05-20 10:31:09.059546+00,50,50
_1baolpfhn,13.49138,52.502919999999996,Trauben-Kirsche,undefined,Emanuelstraße,undefined,24SB16,2003.0,16,Lichtenberg,2020-08-16 16:18:30.225788+00,5,5
_1bnph9mii,13.29853,52.617909999999995,Spitz-Ahorn,AHORN,Friedrichsthaler Weg,13,01400-Str,1954.0,65,Reinickendorf,2020-05-22 09:02:07.840111+00,25,50
_1byl6yh9b,13.321520000000001,52.47685,Gemeine Rosskastanie,ROSSKASTANIE,Kreisauer Straße,5,17848,1951.0,68,Tempelhof-Schöneberg,2020-07-24 07:45:06.081067+00,50,50
_1ccjsqn1t,13.349910000000001,52.50167,Silber-Linde,LINDE,Courbièrestraße,5,17900,1991.0,28,Tempelhof-Schöneberg,2020-06-12 14:42:22.046335+00,10,20
_1cooz54fi,13.32425,52.59273,Winter-Linde,LINDE,undefined,undefined,00998,1910.0,109,Reinickendorf,2020-08-23 16:47:17.713234+00,50,50
_1d4efwn5e,13.4638,52.51851,Spitz-Ahorn,AHORN,undefined,undefined,60114,1976.0,43,Friedrichshain-Kreuzberg,2020-07-24 05:03:24.081648+00,50,300
_1dh3yccyg,13.39345,52.38895,Baum-Hasel,HASEL,Wünsdorfer Straße,94,4957,2014.0,5,Tempelhof-Schöneberg,2020-08-12 13:04:02.75276+00,10,10
_1di0okaxq,13.46713,52.51709,Chinesische Wild-Birne,BIRNE,Schreinerstraße,undefined,SCHREIN,1999.0,20,Friedrichshain-Kreuzberg,2020-05-26 17:02:06.672491+00,10,10
_1domuv4ue,13.41279,52.5451,Holländische Linde,LINDE,Schönhauser Allee,undefined,42616,1954.0,65,Pankow,2020-05-31 07:39:48.798651+00,10,120
_1elsszvjm,13.334179999999998,52.47554,Sand-Birke,BIRKE,Perelsplatz,undefined,17786,2007.0,12,Tempelhof-Schöneberg,2020-06-20 15:11:33.318553+00,50,100
_1epnb8k93,13.335360000000001,52.46864,Kaiser-Linde,LINDE,Dickhardtstraße,46,17891,2000.0,19,Tempelhof-Schöneberg,2020-06-07 17:55:30.259927+00,25,200
_1f0lunigr,13.37127,52.54205,Großblättrige Sommerlinde,LINDE,Schönwalder Straße,14,364400,2015.0,4,Mitte,2020-09-22 11:42:29.196654+00,50,150
_1f28b01gl,13.47826,52.49233,Sumpf-Eiche,EICHE,Tunnelstraße,undefined,,2000.0,19,Friedrichshain-Kreuzberg,2020-08-07 19:24:28.620709+00,25,25
_1f5p4s4u5,13.426870000000001,52.490140000000004,Winter-Linde,LINDE,Lenaustraße,8,2738,1980.0,39,Neukölln,2020-06-07 15:28:15.979204+00,10,10
_1f8vaokn8,13.4441,52.49984,Winter-Linde,LINDE,Schlesische Straße,hsnr 9,03964,2014.0,5,Friedrichshain-Kreuzberg,2020-06-24 21:30:56.702553+00,25,85
_1f997e3ul,13.29081,52.51461,Ahornblättrige Platane,PLATANE,Danckelmannstraße,16,00919,1984.0,35,Charlottenburg-Wilmersdorf,2020-06-07 09:06:36.538875+00,10,10
_1feap2kkd,13.423670000000001,52.54404,Baum-Hasel,HASEL,Stargarder Straße,undefined,42762,1990.0,29,Pankow,2020-06-10 18:42:53.052664+00,50,70
_1fkzudr1q,13.499889999999999,52.507,Eingriffliger Weissdorn,WEIßDORN,Heinrichstraße,undefined,24SB20,1998.0,21,Lichtenberg,2020-05-22 17:56:11.643509+00,50,75
_1fm5fzgbf,13.330670000000001,52.424240000000005,Gemeine Rosskastanie,ROSSKASTANIE,Ferdinandstraße,14,001263,1915.0,104,Steglitz-Zehlendorf,2020-08-16 20:17:10.052929+00,25,25
_1fosc6qeg,13.332120000000002,52.46021999999999,Borstige Robinie,ROBINIE,Kniephofstraße,ggü 5,2486,1970.0,49,Steglitz-Zehlendorf,2020-05-28 20:34:13.874497+00,10,10
_1fu4m26sm,13.231370000000002,52.571999999999996,Spitz-Ahorn,AHORN,Beatestraße,34,00454-Str,2012.0,7,Reinickendorf,2020-08-11 20:00:31.688653+00,10,60
_1h3eva1su,13.29221,52.50489,Ahornblättrige Platane,PLATANE,Trendelenburgstraße,8,04538,2004.0,15,Charlottenburg-Wilmersdorf,2020-05-28 14:59:57.906862+00,25,290
_1h8uo97q7,13.38667,52.4579,Kaiser-Linde,LINDE,Friedrich-Wilhelm-Straße,90,1404,1954.0,65,Tempelhof-Schöneberg,2020-08-12 19:30:46.393734+00,25,275
_1hzxeips3,13.392579999999999,52.4858,Baum-Hasel,HASEL,Schwiebusser Straße,undefined,04092,1978.0,41,Friedrichshain-Kreuzberg,2020-05-26 17:52:10.48159+00,10,35
_1i4dct8lo,13.44994,52.448119999999996,"Berg-Ahorn, Weiss-Ahorn",AHORN,Fritz-Reuter-Allee,48,1414,2012.0,7,Neukölln,2020-05-21 09:38:09.221111+00,25,25
_1ic1a6h9x,13.41978,52.54909,Ahornblättrige Platane,PLATANE,Wichertstraße,undefined,43547,1995.0,24,Pankow,2020-05-31 10:55:09.739148+00,50,100
_1icqdkgo9,13.349870000000001,52.47981,Blutpflaume,undefined,Gustav-Freytag-Straße,5,17872,1970.0,49,Tempelhof-Schöneberg,2020-06-03 20:31:29.428326+00,5,5
_1if17m80y,13.470770000000002,52.496719999999996,Großblättrige Robinie,ROBINIE,Fischzug,undefined,FISCHZUG,2004.0,15,Friedrichshain-Kreuzberg,2020-09-01 09:43:48.471203+00,10,10
_1jogqptxy,13.39456,52.5039,Sand-Birke,BIRKE,undefined,undefined,00043,1993.0,26,Friedrichshain-Kreuzberg,2020-08-15 16:22:18.888302+00,50,150
_1jvsuus4y,13.3825,52.49361,Linde,LINDE,Yorckstraße,undefined,04977,1992.0,27,Friedrichshain-Kreuzberg,2020-06-17 05:35:02.139399+00,50,200
_1kegpj67q,13.470479999999998,52.51729,"Berg-Ahorn, Weiss-Ahorn",AHORN,undefined,undefined,60114,1983.0,36,Friedrichshain-Kreuzberg,2020-05-22 05:28:27.49396+00,10,160
_1klnhqisv,13.38176,52.491519999999994,Apfel-Dorn,WEIßDORN,Hagelberger Straße,undefined,01792,1998.0,21,Friedrichshain-Kreuzberg,2020-08-21 02:53:07.813957+00,50,75
_1l19ee288,13.45251,52.512130000000006,Kaiser-Linde,LINDE,Warschauer Straße,undefined,WARSCH,2000.0,19,Friedrichshain-Kreuzberg,2020-05-29 18:05:54.607852+00,50,50
_1lcsc4a7b,13.364679999999998,52.495180000000005,Trauben-Eiche,EICHE,Kirchbachstraße,20,17849,1973.0,46,Tempelhof-Schöneberg,2020-08-23 07:34:16.609718+00,50,50
_1lkn4fs4w,13.44236,52.488609999999994,Baum-Hasel,HASEL,Onckenstraße,undefined,010204,2000.0,19,Treptow-Köpenick,2020-06-17 18:08:18.458199+00,10,10
_1lrq38vqm,13.36945,52.48989,Sommer-Linde,LINDE,Hochkirchstraße,7,17678,1950.0,69,Tempelhof-Schöneberg,2020-08-16 20:10:46.558595+00,10,10
_1lswuw4rp,13.477670000000002,52.49259,Sumpf-Eiche,EICHE,Alt-Stralau,undefined,ALT-STRA,2000.0,19,Friedrichshain-Kreuzberg,2020-08-07 19:24:12.911193+00,25,25
_1m1zls58u,13.23495,52.610330000000005,Spitz-Ahorn,AHORN,Jägerweg,20,02215-Str,2011.0,8,Reinickendorf,2020-08-04 14:23:36.32898+00,10,10
_1m3uce3of,13.55122,52.441930000000006,"Berg-Ahorn, Weiss-Ahorn",AHORN,Hoffmannstraße,undefined,070434,1937.0,82,Treptow-Köpenick,2020-08-24 15:36:28.915807+00,10,10
_1m9edsfj6,13.459570000000001,52.52254,Spitz-Ahorn 'Deborah',AHORN,undefined,undefined,80101,2007.0,12,Pankow,2020-05-21 12:13:19.530308+00,10,385
_1mgi75om3,13.44493,52.51027,Sand-Birke,BIRKE,undefined,undefined,62161,1953.0,66,Friedrichshain-Kreuzberg,2020-05-22 13:57:25.568185+00,50,50
_1n2oyzab0,13.46711,52.518,Pflaumenblättriger Weiss-Dorn,WEIßDORN,Bänschstraße,63,BÄNSCHST,2014.0,5,Friedrichshain-Kreuzberg,2020-05-21 22:16:31.479481+00,25,200
_1o20f8hwz,13.336179999999999,52.463469999999994,Winter-Linde,LINDE,Lauenburger Straße,5,2718,1976.0,43,Steglitz-Zehlendorf,2020-06-26 09:00:02.893346+00,50,50
_1o6bn3qku,13.32489,52.490880000000004,Winter-Linde 'Greenspire',LINDE,Holsteinische Straße,19,02067,2009.0,10,Charlottenburg-Wilmersdorf,2020-07-10 17:35:56.278587+00,25,25
_1o9upcodh,13.333379999999998,52.49515,Holländische Linde,LINDE,Nachodstraße,19,03166,1955.0,64,Charlottenburg-Wilmersdorf,2020-06-03 09:14:05.782291+00,50,50
_1ohqtz551,13.203510000000001,52.545590000000004,Winter-Linde,LINDE,Schönwalder Straße,16,04013-Str,1983.0,36,Spandau,2020-05-20 18:32:15.632669+00,25,305
_1omunbnk5,13.32368,52.570969999999996,Douglasfichte,DOUGLASIE,undefined,undefined,00006,1985.0,34,Reinickendorf,2020-05-20 12:44:33.88559+00,10,20
_1pyu4dw6k,13.348239999999999,52.45346,Baum-Hasel,HASEL,Munsterdamm,45,3156,1960.0,59,Steglitz-Zehlendorf,2020-08-13 07:01:27.939801+00,10,20
_1q5az6ekh,13.36227,52.490990000000004,Gemeine Rosskastanie,ROSSKASTANIE,Neue Steinmetzstraße,1,17707,2003.0,16,Tempelhof-Schöneberg,2020-07-12 05:48:23.968353+00,50,685
_1qa17tl12,13.469579999999999,52.51746,Pflaumenblättriger Weiss-Dorn,WEIßDORN,undefined,undefined,60114,2016.0,3,Friedrichshain-Kreuzberg,2020-05-22 05:29:20.57488+00,10,160
_1qb9pedtf,13.58045,52.45527,Holländische Linde,LINDE,Mandrellaplatz,undefined,101694,1940.0,79,Treptow-Köpenick,2020-08-17 21:31:23.032269+00,10,10
_1qfoff36m,13.301739999999999,52.43798,Spitz-Ahorn,AHORN,Holbeinstraße,ggü 63,002061,1989.0,30,Steglitz-Zehlendorf,2020-05-24 13:02:33.1565+00,5,60
_1qgclm79d,13.4716,52.49613000000001,Sand-Birke,BIRKE,undefined,undefined,60458,1991.0,28,Friedrichshain-Kreuzberg,2020-05-31 18:34:22.907569+00,5,75
_1qovrfnr5,13.44311,52.48655,Winter-Linde,LINDE,Bouchéstraße,52,6088,1920.0,99,Neukölln,2020-06-10 20:53:33.912624+00,10,10
_1r8szz5y0,13.38686,52.540769999999995,Berg-Ahorn 'Atropurpureum',AHORN,Voltastraße,6,30641,1949.0,70,Mitte,2020-08-12 15:05:48.681916+00,25,75
_1rarevvwd,13.44982,52.448530000000005,"Berg-Ahorn, Weiss-Ahorn",AHORN,Fritz-Reuter-Allee,46,1414,2012.0,7,Neukölln,2020-05-21 09:34:18.157722+00,25,25
_1rkz6zwdg,13.477920000000001,52.492540000000005,Sumpf-Eiche,EICHE,Alt-Stralau,undefined,,2000.0,19,Friedrichshain-Kreuzberg,2020-08-07 19:24:20.03313+00,25,25
_1rmvrw4m8,13.43247,52.53017,Japanische Zierkirsche 'Kanzan',undefined,Käthe-Niederkirchner-Straße,undefined,41804,1988.0,31,Pankow,2020-08-16 17:36:11.654502+00,25,25
_1rpbqm6ve,13.463779999999998,52.51846,Pflaumenblättriger Weiss-Dorn,WEIßDORN,undefined,undefined,60114,2016.0,3,Friedrichshain-Kreuzberg,2020-07-24 05:04:30.243464+00,50,300
_1slteqsxt,13.43789,52.534319999999994,Hainbuche,HAINBUCHE,Bötzowstraße,undefined,40403,1988.0,31,Pankow,2020-05-22 09:37:10.537753+00,50,135
_1sor6ixsf,13.37459,52.45785,Kaiser-Linde,LINDE,Burgemeisterstraße,undefined,814,1959.0,60,Tempelhof-Schöneberg,2020-08-08 06:05:42.53793+00,50,50
_1sv98r9ux,13.45442,52.524469999999994,Winter-Linde,LINDE,Hausburgstraße,undefined,HAUSBURG,2018.0,1,Friedrichshain-Kreuzberg,2020-07-20 19:14:27.90673+00,10,85
_1sw8lfoe6,13.33425,52.4884,Winter-Linde 'Greenspire',LINDE,Helmstedter Straße,15,01932,2010.0,9,Charlottenburg-Wilmersdorf,2020-05-24 19:55:50.50805+00,5,5
_1t29vfku1,13.2168,52.426109999999994,Robinie,ROBINIE,Schlehdornsteig,9,5664,1988.0,31,Steglitz-Zehlendorf,2020-06-21 17:30:32.250548+00,25,60
_1td0b5nsh,13.63031,52.45523000000001,Gemeine Rosskastanie,ROSSKASTANIE,Kastanienallee,undefined,110454,2000.0,19,Treptow-Köpenick,2020-05-29 17:57:32.09573+00,5,20
_1tzpo5fda,13.35704,52.54955,Winter-Linde,LINDE,Utrechter Straße,13,30637,2005.0,14,Mitte,2021-04-25 08:06:51.243733+00,25,25
_1u25545im,13.36255,52.48161999999999,Baum-Hasel,HASEL,Gustav-Müller-Straße,36,17682,1982.0,37,Tempelhof-Schöneberg,2020-08-11 18:55:23.699155+00,10,10
_1u3q69qop,13.4862,52.476859999999995,Spitz-Ahorn 'Allershausen',AHORN,Neue Krugallee,undefined,030304,2018.0,1,Treptow-Köpenick,2020-08-16 15:18:37.279332+00,50,200
_1u4vxpfkk,13.34799,52.5466,Hainbuche,HAINBUCHE,Lütticher Straße,46,372700,1989.0,30,Mitte,2020-05-20 10:10:03.334479+00,50,50
_1uijyzlpu,13.46701,52.51804,Sand-Birke,BIRKE,Bänschstraße,undefined,BÄNSCHST,1955.0,64,Friedrichshain-Kreuzberg,2020-05-21 22:16:47.662434+00,25,105
_1ujnu30sg,13.46776,52.517790000000005,"Berg-Ahorn, Weiss-Ahorn",AHORN,undefined,undefined,60114,1980.0,39,Friedrichshain-Kreuzberg,2020-05-21 22:22:55.708404+00,10,170
_1umj0bl3r,13.44055,52.49419,Ahornblättrige Platane,PLATANE,Ratiborstraße,undefined,03608,1969.0,50,Friedrichshain-Kreuzberg,2020-05-22 08:47:38.236993+00,10,135
_1v10pvjsc,13.439420000000002,52.462469999999996,Winter-Linde,LINDE,undefined,undefined,325.024,,undefined,Neukölln,2020-10-09 08:09:20.805623+00,10,10
_1v3yi8dbx,13.30042,52.5154,Herzblättrige Erle,ERLE,Haubachstraße,40,01860,1987.0,32,Charlottenburg-Wilmersdorf,2020-05-22 22:52:40.453064+00,10,80
_1vp8k996s,13.363370000000002,52.55206999999999,Großblättrige Robinie,ROBINIE,Liebenwalder Straße,13,30618,1990.0,29,Mitte,2020-08-12 20:39:48.00435+00,25,25
_1w6mja0sn,13.465689999999999,52.51778,"Oxelbeere, Schwedische Mehlbeere",MEHLBEERE,Samariterstraße,undefined,SAMARITE,1998.0,21,Friedrichshain-Kreuzberg,2020-05-21 22:25:59.07634+00,10,10
_1w6uhfi93,13.415270000000001,52.572390000000006,Urweltmammutbaum,URWELT-MAMMUTBAUM,Stiftsweg,undefined,,1990.0,29,Pankow,2020-05-19 18:56:35.353173+00,10,10
_1w6x8br80,13.379620000000001,52.49306,Linde,LINDE,Möckernstraße,undefined,03096,1945.0,74,Friedrichshain-Kreuzberg,2020-07-07 16:50:15.403971+00,25,25
_1wc0odn13,13.43201,52.49078000000001,Winter-Linde,LINDE,Nansenstraße,17,3173,1975.0,44,Neukölln,2020-05-21 18:49:14.686116+00,25,75
_1wmdnkc3y,13.325460000000001,52.46734,Spitz-Ahorn,AHORN,Blankenbergstraße,1,17643,2003.0,16,Tempelhof-Schöneberg,2020-06-07 08:35:20.408379+00,10,35
_1wshju81z,13.42746,52.48175,Kaiser-Linde,LINDE,Mainzer Straße,18,2922,1983.0,36,Neukölln,2020-07-18 09:22:54.441275+00,50,60
_1wyfi36nd,13.35176,52.493159999999996,Silber-Ahorn,AHORN,Kyffhäuserstraße,19,17692,1951.0,68,Tempelhof-Schöneberg,2020-05-22 20:08:40.392774+00,25,125
_1wyjdm06a,13.41624,52.52024,Baum-Hasel,HASEL,Alexanderstraße,11,165500,1990.0,29,Mitte,2020-06-16 07:38:26.628688+00,5,5
_1xl0ws3i7,13.37669,52.4917,Linde,LINDE,Yorckstraße,undefined,04977,1991.0,28,Friedrichshain-Kreuzberg,2020-08-01 07:29:21.95867+00,50,200
_1xvnih86o,13.33927,52.47426,Spitz-Ahorn,AHORN,Wielandstraße,43,17747,1957.0,62,Tempelhof-Schöneberg,2020-06-28 21:04:40.551728+00,25,25
_1yews8qo2,13.456679999999999,52.509840000000004,Holländische Linde,LINDE,Wühlischstraße,undefined,WÜHLISCH,1973.0,46,Friedrichshain-Kreuzberg,2020-05-20 13:37:33.431968+00,50,135
_1yiihlvlo,13.45726,52.522819999999996,Rotblühende Rosskastanie,ROSSKASTANIE,undefined,undefined,80101,2007.0,12,Pankow,2020-07-24 20:07:51.743635+00,5,290
_1yk5606oc,13.386479999999999,52.457919999999994,Kaiser-Linde,LINDE,Friedrich-Wilhelm-Straße,88,1404,1957.0,62,Tempelhof-Schöneberg,2020-08-12 19:31:09.155262+00,25,300
_1yqk9rk05,13.46331,52.49935,Baum-Hasel,HASEL,Corinthstraße,50,CORINTHS,2004.0,15,Friedrichshain-Kreuzberg,2020-06-10 18:32:59.870191+00,25,175
_1zdl0mnf4,13.40359,52.53397,Winter-Linde,LINDE,Zionskirchstraße,34,197900,1990.0,29,Mitte,2020-06-19 07:35:18.141946+00,25,430
_1zdrlzq4p,13.352770000000001,52.54812,Pyramiden-Hainbuche,HAINBUCHE,Genter Straße,56,30599,2013.0,6,Mitte,2020-07-02 16:00:42.050331+00,5,5
_201lnqevh,13.29265,52.51327,Spitz-Ahorn,AHORN,Knobelsdorffstraße,25,02488,1974.0,45,Charlottenburg-Wilmersdorf,2020-05-20 07:27:32.425555+00,25,25
_208vsjf66,13.40335,52.56548000000001,Holländische Linde,LINDE,Florastraße,undefined,40849,1949.0,70,Pankow,2020-05-24 08:55:35.273347+00,10,10
_20tjo19zr,13.29224,52.49584,Gemeine Rosskastanie,ROSSKASTANIE,Seesener Straße,27,04118,1955.0,64,Charlottenburg-Wilmersdorf,2020-08-11 18:30:44.105819+00,25,25
_20x3phko1,13.31215,52.50789,Kaiser-Linde,LINDE,Pestalozzistraße,22,03433,1993.0,26,Charlottenburg-Wilmersdorf,2020-08-16 18:38:00.193031+00,10,110
_21zd72b4a,13.39395,52.50226,Pyramiden-Eiche,EICHE,E.T.A.-Hoffmann-Promenade,undefined,06036,1979.0,40,Friedrichshain-Kreuzberg,2020-05-24 16:36:58.988471+00,50,50
_238q2rlgb,13.433060000000001,52.53504,Gewöhnliche Felsenbirne,FELSENBIRNE,Dietrich-Bonhoeffer-Straße,undefined,43605,2017.0,2,Pankow,2020-08-16 19:33:48.044288+00,25,25
_23q5fj0zt,13.33924,52.47371,Kaiser-Linde,LINDE,Wielandstraße,40,17747,2016.0,3,Tempelhof-Schöneberg,2020-06-28 21:06:09.343423+00,25,25
_24e2vqga5,13.350979999999998,52.5754,Ahornblättrige Platane,PLATANE,Alt-Reinickendorf,25,00104-Str,2002.0,17,Reinickendorf,2020-07-29 08:40:16.914899+00,25,160
_24k972pbj,13.402629999999998,52.56426999999999,Winter-Linde,LINDE,Heynstraße,undefined,41301,1949.0,70,Pankow,2020-08-16 10:33:36.869009+00,10,10
_24ws492ya,13.46751,52.51784,Spitz-Ahorn,AHORN,undefined,undefined,60114,1974.0,45,Friedrichshain-Kreuzberg,2020-05-21 22:23:22.508666+00,10,145
_25ehqi72q,13.47993,52.50305,Zweigriffliger Weissdorn,WEIßDORN,Türrschmidtstraße,undefined,,2017.0,2,Lichtenberg,2020-05-31 21:22:29.900207+00,25,25
_25ezyfwts,13.46623,52.505880000000005,Spitz-Ahorn,AHORN,Sonntagstraße,undefined,SONNTAGS,1993.0,26,Friedrichshain-Kreuzberg,2020-08-17 08:04:48.706778+00,25,25
_25f114wkf,13.48267,52.53787,Kaiser-Linde,LINDE,Sandinostraße,18C,15SB10,2014.0,5,Lichtenberg,2020-05-21 13:15:28.803322+00,50,50
_25hcnlrf6,13.40921,52.56033000000001,Winter-Linde 'Greenspire',LINDE,Zillertalstraße,undefined,43654,2003.0,16,Pankow,2020-08-13 10:02:55.072517+00,25,50
_25qe9e6s9,13.442829999999999,52.4715,Sand-Birke,BIRKE,Wipperstraße,18/19,4911,1995.0,24,Neukölln,2020-05-19 09:49:46.788109+00,50,225
_25snyg7f7,13.29998,52.42155,Baum-Hasel,HASEL,Ortlerweg,49,3337,1997.0,22,Steglitz-Zehlendorf,2020-08-06 14:10:43.952989+00,50,50
_265l0srex,13.423379999999998,52.49326,Gleditschie 'Skyline',GLEDITSCHIE,Spremberger Straße,1,4265,2013.0,6,Neukölln,2020-06-26 10:02:36.788085+00,50,50
_265tzllhf,13.37134,52.478390000000005,Spitz-Ahorn 'Olmstedt',AHORN,Gontermannstraße,34,1629,2018.0,1,Tempelhof-Schöneberg,2020-08-09 19:33:07.755361+00,50,50
_26lglfggy,13.387429999999998,52.4647,"Sommer-Eiche, Stiel-Eiche",EICHE,Götzstraße,undefined,1611,1977.0,42,Tempelhof-Schöneberg,2020-08-18 16:26:35.386231+00,10,10
_26mdgknyb,13.52755,52.484069999999996,Kaiser-Linde,LINDE,Weseler Straße,undefined,31SB41,2007.0,12,Lichtenberg,2020-05-31 22:12:48.080486+00,50,620
_26qi6ooao,13.40146,52.535309999999996,Winter-Linde,LINDE,Zionskirchstraße,10,197900,2000.0,19,Mitte,2020-06-01 16:32:52.410967+00,25,50
_27f6qd7n1,13.329870000000001,52.477340000000005,Spitz-Ahorn,AHORN,Varziner Straße,4,17801,2011.0,8,Tempelhof-Schöneberg,2020-08-29 14:18:13.482365+00,50,110
_27hbpwqgc,13.3158,52.466269999999994,Winter-Linde,LINDE,Paulsenstraße,26,3419,1960.0,59,Steglitz-Zehlendorf,2020-08-19 17:50:50.695726+00,10,10
_292lbv4ja,13.30064,52.5072,Flatter-Ulme,ULME,Fritschestraße,49,01410,1950.0,69,Charlottenburg-Wilmersdorf,2020-06-24 19:46:32.817406+00,50,150
_2973dqnub,13.38018,52.491659999999996,Rot-/Weißdorn,WEIßDORN,Hagelberger Straße,undefined,01792,1992.0,27,Friedrichshain-Kreuzberg,2020-07-30 18:49:38.547021+00,50,100
_29dnkwena,13.31639,52.41819,Sand-Birke,BIRKE,Blanckertzweg,undefined,598,1981.0,38,Steglitz-Zehlendorf,2020-08-24 16:25:46.649528+00,50,50
_29ncgn8zz,13.414860000000001,52.57218,Holländische Linde,LINDE,Breite Straße,undefined,44792,1949.0,70,Pankow,2020-05-19 18:57:56.884338+00,10,10
_29vidbhq4,13.384910000000001,52.480019999999996,Sommer-Linde,LINDE,Wolffring,3,4936,1966.0,53,Tempelhof-Schöneberg,2020-08-22 14:29:57.064488+00,50,50
_29xri6jl3,13.426429999999998,52.48214,Winter-Linde,LINDE,Biebricher Straße,11,552,1980.0,39,Neukölln,2020-06-03 11:04:23.598026+00,5,10
_2a4ddm6qa,13.5176,52.4673,Spitz-Ahorn,AHORN,Fontanestraße,undefined,090104,1966.0,53,Treptow-Köpenick,2020-06-17 21:53:55.330888+00,25,25
_2ajft67v7,13.43552,52.46841,Pappel,PAPPEL,Siegfriedstraße,8,4168,1960.0,59,Neukölln,2020-06-01 22:23:09.564689+00,10,10
_2bbsjnl11,13.42286,52.5444,Winter-Linde 'Greenspire',LINDE,Stargarder Straße,undefined,42762,2015.0,4,Pankow,2020-06-03 09:25:13.475888+00,50,50
_2begv3uju,13.38248,52.49163000000001,Rot-/Weißdorn,WEIßDORN,Hagelberger Straße,undefined,01792,1991.0,28,Friedrichshain-Kreuzberg,2020-07-30 18:44:05.261597+00,50,50
_2bfhvth3a,13.33284,52.50153,Japanischer Schnurbaum,undefined,Rankestraße,undefined,03598,1938.0,81,Charlottenburg-Wilmersdorf,2020-06-27 06:09:58.637114+00,50,465
_2cxysfc2n,13.39211,52.49969,Ahornblättrige Platane,PLATANE,Mehringplatz,undefined,07075,1908.0,111,Friedrichshain-Kreuzberg,2020-06-11 16:17:47.589361+00,25,75
_2davg01g9,13.2782,52.63456,Echte Mehlbeere,MEHLBEERE,Münchener Straße,6,03151-Str,1995.0,24,Reinickendorf,2020-05-20 10:31:24.023222+00,50,150
_2dhf6moqq,13.32465,52.47257,Spitz-Ahorn 'Cleveland',AHORN,Wilhelmshöher Straße,9,17806,2019.0,0,Tempelhof-Schöneberg,2020-05-21 15:12:03.560845+00,10,35
_2dwg5rhnv,13.465729999999999,52.517419999999994,"Oxelbeere, Schwedische Mehlbeere",MEHLBEERE,Samariterstraße,undefined,SAMARITE,1998.0,21,Friedrichshain-Kreuzberg,2020-05-21 22:24:36.341857+00,10,10
_2e0oavu6r,13.468739999999999,52.51755,Feld-Ulme,ULME,undefined,undefined,60114,1907.0,112,Friedrichshain-Kreuzberg,2020-05-21 22:30:52.460427+00,10,170
_2e43ulrgo,13.37845,52.492169999999994,Linde,LINDE,Yorckstraße,undefined,04977,1975.0,44,Friedrichshain-Kreuzberg,2020-08-05 05:25:23.046612+00,50,50
_2evb9mnxh,13.36641,52.58515,Ahornblättrige Platane,PLATANE,Hauptstraße,undefined,41216,2004.0,15,Pankow,2020-08-17 11:33:43.772279+00,25,25
_2f128fg7h,13.383479999999999,52.483630000000005,Baum-Hasel,HASEL,Manfred-von-Richthofen-Straße,11,2930,1986.0,33,Tempelhof-Schöneberg,2020-05-20 16:05:27.560592+00,10,25
_2fao24k7l,13.3805,52.494209999999995,Hainbuche,HAINBUCHE,undefined,undefined,50086,1983.0,36,Friedrichshain-Kreuzberg,2020-07-07 16:55:01.192651+00,25,55
_2fk35b68i,13.41544,52.55716999999999,Linde,LINDE,Hallandstraße,undefined,41170,2007.0,12,Pankow,2020-08-06 17:59:48.861338+00,25,25
_2fnho6cf2,13.4777,52.61606999999999,Winter-Linde,LINDE,Busonistraße,undefined,06449,1990.0,29,Pankow,2020-05-21 16:55:14.220519+00,5,5
_2frl666ob,13.338339999999999,52.55153000000001,Baum-Hasel,HASEL,Sansibarstraße,2,30576,1985.0,34,Mitte,2020-08-13 19:26:29.37405+00,10,145
_2fsa2z9g7,13.248820000000002,52.441390000000006,Baum-Hasel,HASEL,Hartmannsweilerweg,29,1845,2001.0,18,Steglitz-Zehlendorf,2020-05-21 17:24:46.962831+00,5,10
_2g7wirmhx,13.434320000000001,52.49969,Feld-Ahorn,AHORN,Skalitzer Straße,undefined,04193,1996.0,23,Friedrichshain-Kreuzberg,2020-08-24 10:42:12.004697+00,25,25
_2gavnsslj,13.31605,52.466530000000006,Winter-Linde,LINDE,Paulsenstraße,27,003419,1960.0,59,Steglitz-Zehlendorf,2020-08-19 17:51:39.478964+00,10,10
_2gc5ka2ev,13.53169,52.49058,Sommer-Linde,LINDE,Rudolf-Grosse-Straße,undefined,31SB31,1965.0,54,Lichtenberg,2020-05-25 13:41:56.589394+00,50,250
_2gfxfgjtj,13.363829999999998,52.49561,Säulenförmiger Spitz-Ahorn,AHORN,Alvenslebenstraße,20,17912,2000.0,19,Tempelhof-Schöneberg,2020-08-21 19:56:09.784649+00,25,25
_2ghra9g1a,13.417910000000001,52.55611999999999,Gewöhnliche Esche,ESCHE,Eschengraben,undefined,40768,2013.0,6,Pankow,2020-06-28 09:51:26.998343+00,50,75
_2gsd7rjbs,13.481320000000002,52.499390000000005,Schwarz-Pappel,PAPPEL,Schlichtallee,undefined,29SB16,1924.0,95,Lichtenberg,2020-05-28 15:41:53.606008+00,50,150
_2gwm0zvdh,13.420910000000001,52.503319999999995,Schwarz-Ahorn 'Faassen's Black',AHORN,undefined,undefined,60048,1982.0,37,Friedrichshain-Kreuzberg,2020-09-09 18:02:46.549379+00,10,35
_2h01mf7id,13.318270000000002,52.485209999999995,Krim-Linde,LINDE,Wilhelmsaue,104,04868,1955.0,64,Charlottenburg-Wilmersdorf,2020-06-15 12:52:42.713268+00,10,10
_2hdt7absq,13.387089999999999,52.54084,Spitz-Ahorn,AHORN,Voltastraße,6,30641,1941.0,78,Mitte,2020-08-12 15:05:38.798537+00,25,75
_2hqlmtacz,13.469479999999999,52.517469999999996,Spitz-Ahorn,AHORN,undefined,undefined,60114,1967.0,52,Friedrichshain-Kreuzberg,2020-05-22 05:29:27.128027+00,10,160
_2hx8y6pq0,13.352379999999998,52.48741,Kleinkronige Winter-Linde,LINDE,Merseburger Straße,undefined,17705,2016.0,3,Tempelhof-Schöneberg,2020-08-17 06:59:56.522162+00,10,10
_2hz080uvs,13.349029999999999,52.490590000000005,Winter-Linde,LINDE,Eisenacher Straße,16,,1999.0,20,Tempelhof-Schöneberg,2020-09-21 11:56:54.705815+00,50,125
_2i79agxlu,13.3108,52.43955,Rotblühende Rosskastanie,ROSSKASTANIE,Dürerstraße,9,1043,2018.0,1,Steglitz-Zehlendorf,2020-06-05 13:43:03.074111+00,50,50
_2iax2x6sg,13.31749,52.51943000000001,Winter-Linde,LINDE,Galvanistraße,undefined,01468,1947.0,72,Charlottenburg-Wilmersdorf,2021-04-21 10:45:44.407984+00,50,100
_2j792k790,13.459579999999999,52.517430000000004,Baum-Hasel,HASEL,Rigaer Straße,undefined,RIGAER,1999.0,20,Friedrichshain-Kreuzberg,2020-08-20 18:50:24.065753+00,50,200
_2ja9m3hsl,13.323120000000001,52.468830000000004,Kaiser-Linde,LINDE,Hertelstraße,2,17869,2000.0,19,Tempelhof-Schöneberg,2020-05-19 14:17:33.272449+00,10,365
_2k28hav38,13.34706,52.549519999999994,Baum-Hasel,HASEL,Togostraße,77,377700,1970.0,49,Mitte,2020-08-29 15:18:18.055218+00,25,25
_2k4xrtz8c,13.32645,52.42411,Silber-Linde,LINDE,Auguststraße,undefined,372,2011.0,8,Steglitz-Zehlendorf,2020-07-28 08:27:00.929802+00,25,150
_2k5iixgcz,13.31171,52.523480000000006,"Berg-Ahorn, Weiss-Ahorn",AHORN,Wernigeroder Straße,undefined,04803,1988.0,31,Charlottenburg-Wilmersdorf,2020-06-01 10:48:58.198831+00,5,15
_2kd1hw9qs,13.29266,52.51256,Ahornblättrige Platane,PLATANE,Horstweg,10a,02093,1997.0,22,Charlottenburg-Wilmersdorf,2020-06-19 20:18:46.145889+00,25,675
_2log4oxbf,13.52795,52.48426,Gewöhnliche Esche,ESCHE,Godesberger Straße,undefined,31SB09,1983.0,36,Lichtenberg,2021-05-07 12:20:06.653486+00,50,50
_2mi2jw888,13.39211,52.490080000000006,Rot-/Weißdorn,WEIßDORN,Solmsstraße,undefined,04212,1989.0,30,Friedrichshain-Kreuzberg,2020-06-19 19:44:52.34137+00,25,35
_2mi8k7cmh,13.423670000000001,52.47891,Winter-Linde,LINDE,Selchower Straße,30,4130,1961.0,58,Neukölln,2020-05-20 15:06:52.469419+00,50,50
_2mle47fy8,13.43385,52.531009999999995,Ahornblättrige Platane,PLATANE,Hufelandstraße,undefined,41384,2001.0,18,Pankow,2020-06-23 13:45:04.7932+00,10,20
_2my0xsmo4,13.26875,52.517830000000004,Gewöhnliche Esche,ESCHE,Eschenallee,8,01200,1994.0,25,Charlottenburg-Wilmersdorf,2020-08-13 07:38:34.53708+00,25,25
_2n2qop1hz,13.344510000000001,52.465469999999996,Sommer-Linde,LINDE,Rubensstraße,103,17730,1993.0,26,Tempelhof-Schöneberg,2020-06-04 20:50:08.494732+00,50,200
_2neale9lq,13.431429999999999,52.50141,Chinesische Wild-Birne,BIRNE,Muskauer Straße,48,03161,2017.0,2,Friedrichshain-Kreuzberg,2020-07-08 16:51:09.955988+00,50,50
_2nodq4kuy,13.316889999999999,52.530280000000005,Zier-Feld-Ahorn 'Red Shine',AHORN,Ufnaustraße,9,218220,2017.0,2,Mitte,2020-05-19 19:06:55.403868+00,25,370
_2o1wmgej1,13.30061,52.50728,Flatter-Ulme,ULME,Fritschestraße,49,01410,1992.0,27,Charlottenburg-Wilmersdorf,2020-08-04 18:37:06.154598+00,50,150
_2o9y8u8l7,13.42455,52.54981,Säulenzierkirsche,undefined,Gudvanger Straße,undefined,41128,2012.0,7,Pankow,2020-06-24 20:14:45.43388+00,10,10
_2ok59mv7l,13.42782,52.52776,Silber-Ahorn,AHORN,undefined,undefined,60102,1911.0,108,Friedrichshain-Kreuzberg,2020-08-08 16:00:16.662974+00,10,10
_2omizsjdb,13.30277,52.516040000000004,Winter-Linde 'Greenspire',LINDE,Gierkezeile,36,01552,2011.0,8,Charlottenburg-Wilmersdorf,2020-05-19 14:06:24.442417+00,50,275
_2oorm0i19,13.29349,52.512069999999994,"Sommer-Eiche, Stiel-Eiche",EICHE,Wundtstraße,undefined,04968,2009.0,10,Charlottenburg-Wilmersdorf,2021-03-06 10:54:09.61556+00,5,5
_2pctialjt,13.360999999999999,52.50151999999999,Holländische Linde,LINDE,Pohlstraße,87,219620,1970.0,49,Mitte,2020-05-22 10:48:12.095159+00,25,125
_2phy811vo,13.30364,52.51732,Säulenförmiger Spitz-Ahorn,AHORN,Schustehrusstraße,16,04054,2013.0,6,Charlottenburg-Wilmersdorf,2020-06-23 17:50:30.191469+00,50,110
_2pi1l8age,13.449720000000001,52.448119999999996,"Berg-Ahorn, Weiss-Ahorn",AHORN,Fritz-Reuter-Allee,48,1414,2012.0,7,Neukölln,2020-05-21 09:37:29.272342+00,25,25
_2pl4rong9,13.39812,52.5372,Säulenförmiger Spitz-Ahorn,AHORN,Rheinsberger Straße,13,189400,2014.0,5,Mitte,2020-06-01 09:09:32.864449+00,50,100
_2q6w6evyi,13.35733,52.570119999999996,Winter-Linde,LINDE,Thurgauer Straße,40,04486,2016.0,3,Reinickendorf,2020-06-27 09:02:03.28819+00,25,25
_2qf922mvn,13.273279999999998,52.636759999999995,Krim-Linde,LINDE,Gralsritterweg,23,01661-Str,1959.0,60,Reinickendorf,2020-06-06 16:01:42.518183+00,10,10
_2qiy69af9,13.3165,52.41822,Resista Ulme 'Rebona',ULME,Blanckertzweg,undefined,598,2019.0,0,Steglitz-Zehlendorf,2020-06-14 12:01:16.088695+00,50,325
_2qj1rxiax,13.43581,52.49106,Ulme,ULME,Maybachufer,undefined,3021,2007.0,12,Neukölln,2020-06-02 06:34:44.686202+00,25,75
_2qjui3w2d,13.42021,52.55096999999999,Spitz-Ahorn,AHORN,Scherenbergstraße,undefined,42555,1983.0,36,Pankow,2020-08-16 20:33:58.740708+00,50,50
_2qw3ukbtj,13.335989999999999,52.52904,Säulen-Weiss-Dorn,WEIßDORN,Oldenburger Straße,8,220420,2013.0,6,Mitte,2020-08-16 18:56:18.693946+00,25,25
_2qxh10hse,13.31507,52.46213,Blumen-Esche,ESCHE,Flemmingstraße,9,1298,1970.0,49,Steglitz-Zehlendorf,2020-07-05 06:47:11.418597+00,5,105
_2rl8s5wcz,13.40751,52.49503000000001,Blutpflaume,undefined,undefined,undefined,50072,1995.0,24,Friedrichshain-Kreuzberg,2020-08-11 17:11:35.735136+00,50,470
_2rpfuy2ki,13.4348,52.472,Linde,LINDE,Ilsestraße,12,2146,1998.0,21,Neukölln,2021-05-01 09:07:02.944964+00,10,10
_2rrwgx2yx,13.46538,52.51821999999999,"Berg-Ahorn, Weiss-Ahorn",AHORN,undefined,undefined,60114,1975.0,44,Friedrichshain-Kreuzberg,2020-05-21 22:28:01.260283+00,10,310
_2s17l0i1n,13.33296,52.57448,Echter Rotdorn,WEIßDORN,Schulenburgstraße,16,04046,2011.0,8,Reinickendorf,2020-08-17 16:04:45.049269+00,10,100
_2s2njlsm4,13.332770000000002,52.4952,Amerikanische Rot-Eiche,EICHE,Nachodstraße,16,03166,1979.0,40,Charlottenburg-Wilmersdorf,2020-06-03 09:11:42.810861+00,50,50
_2sudpf3au,13.30454,52.43415,Gemeine Rosskastanie,ROSSKASTANIE,Weddigenweg,ggü 70,004742,1995.0,24,Steglitz-Zehlendorf,2020-08-10 19:39:13.623947+00,50,110
_2t5u9hcaj,13.36147,52.5015,Silber-Linde,LINDE,Pohlstraße,70,219620,1950.0,69,Mitte,2020-05-22 17:27:29.96153+00,25,100
_2tbwepv9g,13.34019,52.55275,Baum-Hasel,HASEL,Sansibarstraße,30,30576,1985.0,34,Mitte,2020-06-01 17:46:09.55663+00,50,200
_2tf6ttzss,13.44701,52.479380000000006,Linde,LINDE,Stuttgarter Straße,49,,1955.0,64,Neukölln,2020-08-14 20:48:24.41887+00,50,100
_2trhy239c,13.4199,52.54905,Ahornblättrige Platane,PLATANE,Wichertstraße,undefined,43547,1938.0,81,Pankow,2020-08-14 19:52:55.492269+00,25,25
_2tth5mjwx,13.31316,52.44381,Winter-Linde,LINDE,Lipaer Straße,4,002822,1985.0,34,Steglitz-Zehlendorf,2020-08-10 06:31:28.03576+00,25,70
_2u7a0bvq2,13.44091,52.49905,Spitz-Ahorn,AHORN,Wrangelstraße,undefined,04951,1989.0,30,Friedrichshain-Kreuzberg,2020-07-23 13:14:12.320973+00,50,200
_2ulep0rwi,13.53186,52.490880000000004,"Berg-Ahorn, Weiss-Ahorn",AHORN,Rudolf-Grosse-Straße,undefined,31SB31,1982.0,37,Lichtenberg,2020-07-09 14:29:15.834962+00,50,50
_2ustc9hvq,13.3144,52.43062,Spitz-Ahorn,AHORN,Königsberger Straße,23a,2504,1983.0,36,Steglitz-Zehlendorf,2020-08-08 09:19:48.655245+00,10,25
_2vtpsv5mo,13.42429,52.523540000000004,Winter-Linde,LINDE,Mollstraße,15,184300,2006.0,13,Mitte,2020-06-16 20:16:19.442952+00,10,10
_2w2fbdfvk,13.34113,52.41979,Winter-Linde,LINDE,Apoldaer Straße,23-25,323,1995.0,24,Steglitz-Zehlendorf,2020-08-15 10:47:39.889629+00,10,10
_2w5gjjkqd,13.4359,52.49381999999999,Kaiser-Linde,LINDE,Reichenberger Straße,undefined,03637,1982.0,37,Friedrichshain-Kreuzberg,2020-05-27 19:54:47.790398+00,10,50
_2wx0yvp7x,13.50099,52.51314,Winter-Linde,LINDE,Guntherstraße,undefined,21SB16,1924.0,95,Lichtenberg,2020-08-09 12:34:27.515829+00,25,25
_2x4h8fb5b,13.286729999999999,52.50315,Winter-Linde,LINDE,Dernburgstraße,24,00950,1978.0,41,Charlottenburg-Wilmersdorf,2020-05-31 09:52:57.992165+00,50,100
_2x71tvhnu,13.44082,52.49116,Silber-Weide,WEIDE,undefined,undefined,010051,1982.0,37,Treptow-Köpenick,2020-07-07 09:35:30.420953+00,5,30
_2xfym8acc,13.3833,52.561769999999996,Erle,ERLE,Fordoner Straße,8,361801,2014.0,5,Mitte,2020-09-07 13:20:11.982832+00,50,150
_2xh47lmaq,13.42133,52.53941,Ahornblättrige Platane,PLATANE,Kollwitzstraße,undefined,41601,1938.0,81,Pankow,2020-08-16 20:05:18.647035+00,50,50
_2xny31uor,13.331729999999999,52.472519999999996,Spitz-Ahorn,AHORN,Niedstraße,14,17839,2000.0,19,Tempelhof-Schöneberg,2020-06-24 10:43:14.743433+00,50,75
_2xoho7hw3,13.43912,52.55526,Winter-Linde 'Greenspire',LINDE,Hamburger Platz,undefined,41174,2008.0,11,Pankow,2020-08-06 15:16:43.822043+00,50,225
_2xui8ch7h,13.337660000000001,52.48678,Echter Rotdorn,WEIßDORN,Bozener Straße,10,17895,1984.0,35,Tempelhof-Schöneberg,2020-06-05 19:01:55.457484+00,50,50
_2ygi1cptx,13.37315,52.47297,Japanische Zierkirsche 'Kanzan',undefined,Hoeppnerstraße,88,2037,2018.0,1,Tempelhof-Schöneberg,2020-05-30 20:44:48.15907+00,25,1425
_2yqpqe4oc,13.36914,52.492580000000004,Echter Rotdorn,WEIßDORN,Katzlerstraße,0,17696,2008.0,11,Tempelhof-Schöneberg,2020-08-27 00:43:41.361922+00,25,30
_2zq6eyiuo,13.43612,52.52143,Kaiser-Linde,LINDE,undefined,undefined,FRIEMIT,2007.0,12,Friedrichshain-Kreuzberg,2020-08-08 20:47:33.889975+00,5,45
_30ksy4bs1,13.34937,52.54897,Spitz-Ahorn,AHORN,Seestraße,35,30585,1989.0,30,Mitte,2020-08-13 11:54:40.200728+00,10,80
_30xfsx74x,13.465489999999999,52.527190000000004,"Berg-Ahorn, Weiss-Ahorn",AHORN,Erich-Kuttner-Straße,undefined,19SB10,1989.0,30,Lichtenberg,2020-08-01 11:18:02.118084+00,50,100
_30zrcgg55,13.382320000000002,52.56136,Japanische Blütenkirsche,undefined,Zechliner Straße,3,30645,2016.0,3,Mitte,2020-09-08 10:49:21.484104+00,50,150
_313oft6wb,13.46265,52.518719999999995,Spitz-Ahorn,AHORN,undefined,undefined,60114,1975.0,44,Friedrichshain-Kreuzberg,2020-07-24 04:55:22.118328+00,50,300
_31m2pxdo0,13.34663,52.46501,Trauben-Kirsche 'Tiefurt',undefined,Peter-Vischer-Straße,33,17718,2012.0,7,Tempelhof-Schöneberg,2020-06-27 17:20:37.877953+00,50,100
_31vmwg69s,13.63795,52.450790000000005,Rot-/Weißdorn,WEIßDORN,Rahnsdorfer Straße,undefined,110634,2006.0,13,Treptow-Köpenick,2020-05-20 19:39:11.472884+00,10,10
_321jq26xj,13.3023,52.50594,Winter-Linde,LINDE,Kaiser-Friedrich-Straße,53,02288,2011.0,8,Charlottenburg-Wilmersdorf,2020-05-22 14:10:50.896481+00,25,735
_331iycvb7,13.480889999999999,52.535030000000006,Gemeine Rosskastanie,ROSSKASTANIE,undefined,undefined,15GA11,1970.0,49,Lichtenberg,2020-08-04 08:00:45.029704+00,25,25
_33fmvqmxx,13.31608,52.50723000000001,Birken-Pappel,PAPPEL,Wielandstraße,49,04840,1978.0,41,Charlottenburg-Wilmersdorf,2020-08-09 17:23:42.255107+00,25,25
_33juc7b7o,13.340329999999998,52.55285,Spitz-Ahorn,AHORN,Sansibarstraße,32,30576,1975.0,44,Mitte,2020-08-10 13:24:11.758395+00,50,75
_343w51vvy,13.325579999999999,52.469809999999995,Kaiser-Linde,LINDE,Goßlerstraße,23,17680,1985.0,34,Tempelhof-Schöneberg,2020-06-07 05:42:43.861724+00,25,25
_34449s68v,13.3324,52.47146,Sand-Birke,BIRKE,Renée-Sintenis-Platz,33,,1985.0,34,Tempelhof-Schöneberg,2020-06-14 15:11:12.901182+00,50,50
_34l9up2au,13.410210000000001,52.55056999999999,"Süss-Kirsche,Vogel-Kirsche",undefined,Seelower Straße,undefined,42665,1980.0,39,Pankow,2020-07-25 10:55:22.10525+00,25,25
_34n4rc8jo,13.366760000000001,52.50096,Einblattakazie,ROBINIE,Körnerstraße,11,243200,1985.0,34,Mitte,2020-05-22 08:17:13.952013+00,50,275
_34q2361kx,13.301829999999999,52.43329,Rotblühende Rosskastanie,ROSSKASTANIE,Kopernikusstraße,13,002551,2016.0,3,Steglitz-Zehlendorf,2020-08-14 06:56:54.367365+00,50,50
_34s299njg,13.35219,52.49569,Robinie,ROBINIE,Habsburgerstraße,4,17675,2014.0,5,Tempelhof-Schöneberg,2020-09-02 19:48:26.224052+00,5,10
_35i156gk1,13.33836,52.48672,Echter Rotdorn,WEIßDORN,Bozener Straße,13,17895,2000.0,19,Tempelhof-Schöneberg,2020-06-02 18:21:48.086877+00,50,150
_360mpnskx,13.2627,52.51335,Echter Rotdorn,WEIßDORN,Hessenallee,11,01982,1995.0,24,Charlottenburg-Wilmersdorf,2020-08-06 11:17:21.65799+00,10,10
_36dfuk0uy,13.324000000000002,52.491530000000004,Holländische Linde,LINDE,Güntzelstraße,25,01740,1977.0,42,Charlottenburg-Wilmersdorf,2020-05-19 19:08:55.554169+00,50,175
_36lr9f4kz,13.29171,52.50564,Säulenförmiger Spitz-Ahorn,AHORN,Trendelenburgstraße,ggü 14,04538,2018.0,1,Charlottenburg-Wilmersdorf,2020-05-28 15:03:48.164633+00,10,210
_370t4fm6d,13.348239999999999,52.46508000000001,Trauben-Kirsche 'Tiefurt',undefined,Peter-Vischer-Straße,41,17718,2008.0,11,Tempelhof-Schöneberg,2020-08-17 13:56:45.428283+00,50,50
_375tm1wge,13.373460000000001,52.48279,Spitz-Ahorn,AHORN,Loewenhardtdamm,23,2839,2007.0,12,Tempelhof-Schöneberg,2020-08-17 21:13:54.490984+00,50,100
_37j99wxd0,13.325220000000002,52.469590000000004,Winter-Linde 'Greenspire',LINDE,Goßlerstraße,22,17680,2018.0,1,Tempelhof-Schöneberg,2020-06-07 05:39:23.757795+00,50,50
_37l5q0h8e,13.395229999999998,52.5344,Winter-Linde,LINDE,Anklamer Straße,51,167600,1950.0,69,Mitte,2020-06-01 11:10:10.366106+00,25,25
_383wuye3g,13.36653,52.5853,Ahornblättrige Platane,PLATANE,Hauptstraße,undefined,41216,2004.0,15,Pankow,2020-08-17 11:33:30.232935+00,10,20
_38a3zwsjw,13.341529999999999,52.49545,Winter-Linde,LINDE,undefined,undefined,17246.0,1994.0,25,Tempelhof-Schöneberg,2020-08-12 15:02:50.491822+00,5,5
_38e5xyn1v,13.29325,52.495619999999995,Spitz-Ahorn,AHORN,Johann-Sigismund-Straße,9,02254,1965.0,54,Charlottenburg-Wilmersdorf,2020-08-09 11:00:27.536103+00,25,25
_38ew025ku,13.452129999999999,52.48826,Kleinkronige Winter-Linde,LINDE,Karl-Kunger-Straße,undefined,10144,1998.0,21,Treptow-Köpenick,2020-08-06 21:57:12.270427+00,25,25
_390r49wvx,13.493229999999999,52.54346999999999,"Berg-Ahorn, Weiss-Ahorn",AHORN,Küstriner Straße,undefined,14SB05,1950.0,69,Lichtenberg,2020-08-11 12:58:23.916899+00,25,75
_3960umqiv,13.37755,52.53649,Trauben-Kirsche,undefined,Wöhlertstraße,19,197200,2006.0,13,Mitte,2020-06-02 17:53:45.4446+00,50,100
_39aj4vs9y,13.4219,52.540130000000005,Säulenförmiger Spitz-Ahorn,AHORN,Senefelderstraße,undefined,42683,2000.0,19,Pankow,2020-06-10 15:10:27.910043+00,10,10
_39f5asqr9,13.4702,52.517340000000004,Pflaumenblättriger Weiss-Dorn,WEIßDORN,undefined,undefined,60114,2016.0,3,Friedrichshain-Kreuzberg,2020-05-22 05:28:44.12594+00,10,160
_39lj56uut,13.41431,52.5475,Spitz-Ahorn,AHORN,Stargarder Straße,undefined,42762,1990.0,29,Pankow,2020-08-25 16:26:32.744522+00,10,10
_39szotv4l,13.319070000000002,52.611309999999996,Pyramiden-Hainbuche,HAINBUCHE,Zehntwerderweg,2,04991-Str,2012.0,7,Reinickendorf,2020-05-23 17:18:39.022971+00,10,20
_3a1rsyj2d,13.380270000000001,52.459759999999996,Winter-Linde 'Greenspire',LINDE,Kaiserin-Augusta-Straße,19,2290,2003.0,16,Tempelhof-Schöneberg,2020-06-23 20:36:57.432545+00,50,125
_3a2t54265,13.423979999999998,52.523630000000004,Ulme 'Columella',ULME,Mollstraße,15,184300,2017.0,2,Mitte,2020-06-16 20:15:58.536944+00,5,5
_3a5ig1nbo,13.436520000000002,52.495940000000004,Trauben-Kirsche,undefined,Wiener Straße,undefined,04842,2014.0,5,Friedrichshain-Kreuzberg,2020-09-24 10:22:24.129275+00,50,50
_3a5l5q1b8,13.32153,52.47705,Gemeine Rosskastanie,ROSSKASTANIE,Kreisauer Straße,4,17848,1951.0,68,Tempelhof-Schöneberg,2020-07-24 07:44:46.12897+00,50,50
_3akowfrqu,13.461179999999999,52.518840000000004,Kaiser-Linde,LINDE,Bänschstraße,undefined,BÄNSCHST,2011.0,8,Friedrichshain-Kreuzberg,2020-05-28 16:51:18.706943+00,25,175
_3bhsxcxlh,13.211720000000001,52.560159999999996,Winter-Linde,LINDE,Chamissostraße,22,00853-Str,1991.0,28,Spandau,2020-06-04 19:23:48.024728+00,25,35
_3bvmhekk4,13.30006,52.518240000000006,Kaiser-Linde,LINDE,Kaiser-Friedrich-Straße,ggü. 4,02288,1993.0,26,Charlottenburg-Wilmersdorf,2020-08-05 04:27:38.51574+00,50,50
_3c810de6d,13.34738,52.53983,Japan-Birke,BIRKE,Buchstraße,8,366700,1963.0,56,Mitte,2020-06-17 15:54:25.941879+00,10,45
_3cbhw5h1q,13.52305,52.485009999999996,"Berg-Ahorn, Weiss-Ahorn",AHORN,Hentigstraße,undefined,30SB07,1992.0,27,Lichtenberg,2020-06-19 05:13:15.327993+00,5,5
_3cf8q2voa,13.314810000000001,52.4684,Amerikanische Linde,LINDE,Ludwig-Barnay-Platz,1,07062,1979.0,40,Charlottenburg-Wilmersdorf,2020-06-02 22:04:33.652582+00,10,20
_3cmb6rvtv,13.459589999999999,52.522009999999995,Sommer-Linde,LINDE,Richard-Ermisch-Straße,undefined,08968,2005.0,14,Pankow,2020-08-02 07:54:45.423629+00,10,35
_3cxepd6zu,13.27987,52.4204,Ahornblättrige Platane,PLATANE,William-H.-Tunner-Straße,6,8624,2002.0,17,Steglitz-Zehlendorf,2020-06-04 19:34:26.536015+00,25,250
_3d49dxjcx,13.37884,52.45887,Krim-Linde,LINDE,Friedrich-Franz-Straße,36,1388,1920.0,99,Tempelhof-Schöneberg,2020-08-11 21:33:24.044269+00,10,30
_3dhdtg32s,13.342229999999999,52.49555,Winter-Linde,LINDE,undefined,undefined,17246.0,1956.0,63,Tempelhof-Schöneberg,2020-08-12 15:04:14.099261+00,5,5
_3dqbgh6ni,13.44875,52.508469999999996,Spitz-Ahorn,AHORN,Marchlewskistraße,undefined,MARCHLEW,2013.0,6,Friedrichshain-Kreuzberg,2020-06-26 20:28:31.599195+00,50,900
_3e13vztst,13.529710000000001,52.4788,Winter-Linde,LINDE,Am Carlsgarten,undefined,32SB01,2008.0,11,Lichtenberg,2020-08-16 12:37:29.705198+00,50,150
_3e8m2qmo2,13.331710000000001,52.47837,Robinie,ROBINIE,Bernhardstraße,2,00523,1978.0,41,Charlottenburg-Wilmersdorf,2020-08-13 18:16:04.771347+00,25,25
_3ehohsvac,13.36341,52.482980000000005,Trauben-Eiche,EICHE,Naumannstraße,28,17714,2009.0,10,Tempelhof-Schöneberg,2020-06-10 17:46:56.099595+00,50,75
_3f6nnuj7l,13.245439999999999,52.43988,Spitz-Ahorn,AHORN,Busseallee,41,000827,2005.0,14,Steglitz-Zehlendorf,2020-07-06 15:39:07.237162+00,25,35
_3fq1y2so8,13.47202,52.51667,Säulen-Eberesche,MEHLBEERE,Pettenkoferstraße,undefined,PETTENKO,2008.0,11,Friedrichshain-Kreuzberg,2020-07-19 20:21:30.56355+00,50,50
_3ftlycelh,13.471379999999998,52.507909999999995,Kaiser-Linde,LINDE,Weserstraße,undefined,WESERSTR,1998.0,21,Friedrichshain-Kreuzberg,2020-08-12 19:24:00.695777+00,50,100
_3gh473cdd,13.33545,52.48996999999999,Amerikanische Linde,LINDE,Jenaer Straße,6,02234,1982.0,37,Charlottenburg-Wilmersdorf,2020-06-17 06:53:36.012184+00,50,50
_3gm5ge0ie,13.37359,52.4728,Japanische Zierkirsche 'Kanzan',undefined,Hoeppnerstraße,88,2037,2018.0,1,Tempelhof-Schöneberg,2020-06-12 19:08:58.856378+00,50,1200
_3gqj5cip0,13.40768,52.554809999999996,Hainbuche,HAINBUCHE,Aalesunder Straße,undefined,40001,2002.0,17,Pankow,2020-08-16 20:40:17.396635+00,50,200
_3gv8vayxp,13.296439999999999,52.47691999999999,Ahornblättrige Platane,PLATANE,Reichenhaller Straße,16,03638,1980.0,39,Charlottenburg-Wilmersdorf,2021-04-28 09:36:15.164954+00,25,25
_3gzyn23hn,13.43211,52.490869999999994,Kleinkronige Winter-Linde,LINDE,Nansenstraße,17,3173,2012.0,7,Neukölln,2020-05-21 18:47:32.08932+00,25,225
_3hb4r346l,13.31364,52.48211,Amerikanische Linde,LINDE,Barstraße,38,00424,1978.0,41,Charlottenburg-Wilmersdorf,2020-05-27 19:42:34.38544+00,50,50
_3hkah7aj1,13.421520000000001,52.47923,Winter-Linde,LINDE,Fontanestraße,19,1328,1992.0,27,Neukölln,2020-05-20 15:59:18.612814+00,50,300
_3hn3o8db7,13.53297,52.48967,"Süss-Kirsche,Vogel-Kirsche",undefined,Neuwieder Straße,undefined,31SB22,1994.0,25,Lichtenberg,2020-08-09 20:46:52.850502+00,50,75
_3i3rt1fv4,13.294189999999999,52.51173000000001,"Berg-Ahorn, Weiss-Ahorn",AHORN,Horstweg,39,02093,1988.0,31,Charlottenburg-Wilmersdorf,2020-05-26 16:06:27.664312+00,5,270
_3i7qu6imy,13.32715,52.49516,Ahornblättrige Platane,PLATANE,Hohenzollerndamm,undefined,02052,1965.0,54,Charlottenburg-Wilmersdorf,2020-08-13 06:58:17.66771+00,50,250
_3i8hdb12c,13.352360000000001,52.49666,Robinie,ROBINIE,Habsburgerstraße,14,17675,1965.0,54,Tempelhof-Schöneberg,2020-05-30 08:33:52.208094+00,5,30
_3ia8ovqjq,13.411979999999998,52.542640000000006,Winter-Linde,LINDE,Schönhauser Allee,undefined,42616,1994.0,25,Pankow,2020-05-20 19:34:34.960879+00,25,125
_3iz3tvqpw,13.42215,52.56375,Winter-Linde 'Greenspire',LINDE,Binzstraße,undefined,40333,2015.0,4,Pankow,2020-05-21 19:11:10.895303+00,50,100
_3j1hypcgt,13.34539,52.46495,Trauben-Kirsche 'Tiefurt',undefined,Peter-Vischer-Straße,27,17718,2012.0,7,Tempelhof-Schöneberg,2020-06-27 17:25:03.030991+00,50,100
_3j6e6pkli,13.43053,52.51806,Kaiser-Linde,LINDE,undefined,undefined,KARL-MAR,2011.0,8,Friedrichshain-Kreuzberg,2020-06-30 21:46:15.547201+00,10,50
_3jhj6z32a,13.33115,52.55911,Sand-Birke,BIRKE,Swakopmunder Straße,22,377200,1964.0,55,Mitte,2020-08-09 17:16:48.301396+00,25,25
_3jz4sein9,13.344520000000001,52.46538,Kaiser-Linde,LINDE,Rubensstraße,105,17730,2006.0,13,Tempelhof-Schöneberg,2020-06-04 20:49:26.207479+00,50,160
_3jzzl1h12,13.414779999999999,52.53096,Linde,LINDE,Straßburger Straße,undefined,42802,1998.0,21,Pankow,2020-08-09 13:53:06.505692+00,25,100
_3k9100uka,13.38233,52.49354,Linde,LINDE,Yorckstraße,undefined,04977,2000.0,19,Friedrichshain-Kreuzberg,2020-06-17 05:35:13.146927+00,50,200
_3ki4d8dsl,13.383239999999999,52.55866999999999,Japanische Zierkirsche 'Kanzan',undefined,undefined,undefined,301010,1998.0,21,Mitte,2020-09-01 12:38:42.985912+00,50,300
_3kllfel8p,13.356029999999999,52.5487,Kugel-Ahorn,AHORN,Utrechter Straße,4,30637,1954.0,65,Mitte,2021-04-25 08:10:09.529938+00,50,50
_3kw0mchw5,13.43515,52.53584,Sand-Birke,BIRKE,Eugen-Schönhaar-Straße,undefined,43501,1988.0,31,Pankow,2020-05-23 15:55:39.255838+00,25,50
_3l7908u49,13.38328,52.48355,Winter-Linde,LINDE,Manfred-von-Richthofen-Straße,13,2930,1970.0,49,Tempelhof-Schöneberg,2020-05-20 16:05:40.802112+00,10,20
_3ld5akmch,13.323039999999999,52.510630000000006,Kaiser-Linde,LINDE,Knesebeckstraße,1-2,02483,1996.0,23,Charlottenburg-Wilmersdorf,2020-06-16 18:08:17.46341+00,50,50
_3liiqa7b9,13.4637,52.517590000000006,Chinesische Wild-Birne,BIRNE,Schreinerstraße,undefined,SCHREIN,1998.0,21,Friedrichshain-Kreuzberg,2020-08-17 10:36:42.113636+00,50,300
_3lsj2jt06,13.410770000000001,52.53015,Linde,LINDE,Schönhauser Allee,undefined,42616,2005.0,14,Pankow,2020-07-22 18:35:45.849295+00,5,5
_3lzvmwsy9,13.33699,52.49100000000001,Pyramiden-Eiche,EICHE,Bamberger Straße,38,00407,1977.0,42,Charlottenburg-Wilmersdorf,2020-05-20 16:39:11.829129+00,10,15
_3m0ilb62v,13.33055,52.455769999999994,Apfel-Dorn,WEIßDORN,Plantagenstraße,undefined,3478,1993.0,26,Steglitz-Zehlendorf,2020-07-30 13:58:00.385131+00,10,70
_3m4a5dlgn,13.41266,52.544630000000005,Holländische Linde,LINDE,Schönhauser Allee,undefined,42616,1954.0,65,Pankow,2020-05-29 13:33:04.009301+00,10,160
_3m5ya0j7y,13.38165,52.48425,Kaiser-Linde,LINDE,Mussehlstraße,22,3162,1972.0,47,Tempelhof-Schöneberg,2020-05-23 21:37:33.751459+00,50,750
_3mj6cl3ye,13.46831,52.52021,Kaiser-Linde,LINDE,Eldenaer Straße,undefined,ELDENAER,2002.0,17,Friedrichshain-Kreuzberg,2020-05-28 20:23:03.7521+00,10,10
_3mm5jbm35,13.29369,52.5134,Spitz-Ahorn,AHORN,Knobelsdorffstraße,20,02488,2003.0,16,Charlottenburg-Wilmersdorf,2020-09-10 23:15:39.422426+00,50,150
_3mwdyn8ke,13.339839999999999,52.52338,Baum-Hasel,HASEL,Krefelder Straße,13,243400,1990.0,29,Mitte,2020-05-25 10:39:12.234116+00,25,25
_3n88enpuk,13.368670000000002,52.55028000000001,Pyramiden-Hainbuche,HAINBUCHE,Gottschedstraße,43,369500,2013.0,6,Mitte,2020-09-23 11:29:04.977419+00,50,150
_3n8nf5xe0,13.348989999999999,52.548759999999994,Spitz-Ahorn,AHORN,Seestraße,34,30585,1980.0,39,Mitte,2020-08-13 11:52:06.479362+00,10,80
_3nnxcnx0f,13.33564,52.47648,Sand-Birke,BIRKE,Bennigsenstraße,27,17904,1999.0,20,Tempelhof-Schöneberg,2020-06-20 15:09:34.037481+00,50,100
_3nt1lzztb,13.378229999999999,52.45879,Amerikanische Rot-Eiche,EICHE,Friedrich-Wilhelm-Straße,30,1404,1957.0,62,Tempelhof-Schöneberg,2020-08-13 18:10:51.292577+00,25,25
_3nvu2ehco,13.335339999999999,52.47074,Kaiser-Linde,LINDE,Dickhardtstraße,1,17891,1990.0,29,Tempelhof-Schöneberg,2020-06-18 17:50:40.201929+00,25,25
_3oajl7z9c,13.46931,52.49569,Spitz-Ahorn,AHORN,Bahrfeldtstraße,undefined,BAH,2004.0,15,Friedrichshain-Kreuzberg,2020-06-01 17:14:59.142074+00,5,5
_3ojegwpnr,13.305779999999999,52.49304,Krim-Linde,LINDE,Westfälische Straße,82,04815,1965.0,54,Charlottenburg-Wilmersdorf,2020-07-16 14:27:55.356431+00,50,50
_3p4eu4xj8,13.37981,52.49429,Sommer-Linde,LINDE,undefined,undefined,50086,1988.0,31,Friedrichshain-Kreuzberg,2020-06-04 17:57:38.952936+00,50,350
_3p7m3ubqh,13.431779999999998,52.501459999999994,Chinesische Wild-Birne,BIRNE,Eisenbahnstraße,3,01107,2017.0,2,Friedrichshain-Kreuzberg,2020-07-08 16:52:16.017522+00,50,50
_3p9vc7bpx,13.28372,52.462559999999996,Echte Mehlbeere,MEHLBEERE,In der Halde,11b,2185,1982.0,37,Steglitz-Zehlendorf,2020-05-21 22:06:14.927744+00,25,25
_3pc0l4blo,13.325429999999999,52.476659999999995,Kaiser-Linde,LINDE,Fehlerstraße,2,17660,2015.0,4,Tempelhof-Schöneberg,2020-07-25 12:25:37.506175+00,50,80
_3pq0gz7kr,13.32133,52.47746,Robinie,ROBINIE,Varziner Straße,21,17801,1975.0,44,Tempelhof-Schöneberg,2020-08-16 08:09:06.502902+00,25,25
_3pwzh6yww,13.382439999999999,52.56301,Ungarische Eiche,EICHE,Koloniestraße,100,371500,2016.0,3,Mitte,2020-09-08 10:49:56.312775+00,50,150
_3pyrhktiv,13.333429999999998,52.47543,Gewöhnliche Esche,ESCHE,Perelsplatz,11,17786,2003.0,16,Tempelhof-Schöneberg,2020-06-20 15:03:03.89568+00,50,80
_3q5jty124,13.456560000000001,52.54759,Gemeine Rosskastanie,ROSSKASTANIE,Herbert-Baum-Straße,undefined,41278,1993.0,26,Pankow,2020-08-12 17:36:53.026851+00,25,25
_3q6kqup9v,13.30185,52.52721999999999,Winter-Linde 'Greenspire',LINDE,Brahestraße,6/7,00693,2014.0,5,Charlottenburg-Wilmersdorf,2020-06-02 10:10:02.688259+00,25,25
_3qszi3zaa,13.42312,52.46955,Winter-Linde,LINDE,Warthestraße,46,4728,1955.0,64,Neukölln,2020-06-16 16:45:28.705036+00,5,25
_3qv6bihqw,13.37372,52.5508,Winter-Linde,LINDE,Uferstraße,12,378400,1979.0,40,Mitte,2020-08-14 16:28:04.9577+00,10,60
_3qw32vgjw,13.422260000000001,52.46756,Winter-Linde,LINDE,Emser Straße,69,1159,1960.0,59,Neukölln,2020-05-22 12:29:23.537777+00,50,75
_3qz7r5bm1,13.331129999999998,52.530440000000006,Zierkirsche 'Pink Perfection',undefined,Waldstraße,42,220200,2013.0,6,Mitte,2020-06-04 04:59:44.489044+00,5,700
_3s06my9lh,13.29185,52.50363,Apfel-Dorn,WEIßDORN,Friedbergstraße,45,01380,2009.0,10,Charlottenburg-Wilmersdorf,2020-06-04 12:58:44.909682+00,10,10
_3sa6zy9ss,13.41402,52.49957,Ahornblättrige Platane,PLATANE,Erkelenzdamm,undefined,01183,1897.0,122,Friedrichshain-Kreuzberg,2020-06-02 10:32:12.646092+00,25,50
_3szibh1w4,13.315970000000002,52.46645,Winter-Linde,LINDE,Paulsenstraße,26,3419,1945.0,74,Steglitz-Zehlendorf,2020-08-19 17:51:18.176525+00,10,10
_3tctpkqp6,13.306029999999998,52.49296999999999,Amerikanische Linde,LINDE,Westfälische Straße,82,04815,1987.0,32,Charlottenburg-Wilmersdorf,2020-07-16 14:27:36.521248+00,50,50
_3tgmws5b0,13.28675,52.53951,Spitz-Ahorn,AHORN,Halemweg,37,01801,1988.0,31,Charlottenburg-Wilmersdorf,2020-05-20 14:48:54.700162+00,25,25
_3tzt00lg7,13.43702,52.466319999999996,Silber-Linde,LINDE,Kranoldplatz,0,7045,1950.0,69,Neukölln,2020-05-23 18:55:31.770277+00,10,10
_3uj3kp4cf,13.391060000000001,52.50102,Winter-Linde,LINDE,undefined,undefined,50012,1989.0,30,Friedrichshain-Kreuzberg,2020-08-18 12:03:18.972669+00,10,10
_3ujn3qjou,13.44479,52.49313000000001,Winter-Linde,LINDE,Lohmühlenstraße,undefined,10174,1947.0,72,Treptow-Köpenick,2020-05-22 05:15:00.682867+00,25,25
_3vhtxjfv6,13.25748,52.51039,Sand-Birke,BIRKE,Westendallee,119,04813,1975.0,44,Charlottenburg-Wilmersdorf,2020-06-22 19:59:53.746788+00,25,25
_3vjd137d1,13.457189999999999,52.50878,"Oxelbeere, Schwedische Mehlbeere",MEHLBEERE,Dirschauer Straße,undefined,DIRSCHAU,1999.0,20,Friedrichshain-Kreuzberg,2020-06-27 16:39:06.190162+00,25,25
_3vte3x2al,13.292679999999999,52.49551999999999,Rotblühende Rosskastanie,ROSSKASTANIE,Seesener Straße,25,04118,1975.0,44,Charlottenburg-Wilmersdorf,2020-08-09 11:26:59.66064+00,10,60
_3vyaevu26,13.280879999999998,52.58611,Silber-Linde,LINDE,Medebacher Weg,7,03023-Str,1995.0,24,Reinickendorf,2020-06-21 18:39:20.57706+00,10,460
_3w23m81p9,13.42095,52.5057,Winter-Linde,LINDE,Engeldamm,62,172100,2006.0,13,Mitte,2020-08-09 20:43:41.462921+00,50,150
_3wbl2vvd1,13.33451,52.53163000000001,Zier-Feld-Ahorn 'Red Shine',AHORN,Emdener Straße,23,220320,2017.0,2,Mitte,2020-08-13 07:05:01.152156+00,50,50
_3wiurkjvo,13.26653,52.628969999999995,Amerikanische Rot-Eiche,EICHE,Am Eichenhain,26,00145-Str,2018.0,1,Reinickendorf,2020-08-17 07:03:10.716856+00,10,40
_3wunhk4lf,13.43488,52.53573000000001,Spitz-Ahorn,AHORN,Eugen-Schönhaar-Straße,undefined,43501,1980.0,39,Pankow,2020-05-23 15:55:58.521067+00,25,35
_3x96wtvw6,13.407879999999999,52.5688,Winter-Linde 'Greenspire',LINDE,Schulstraße,undefined,42645,2014.0,5,Pankow,2020-08-08 15:34:03.953758+00,25,295
_3xre3efil,13.33419,52.495940000000004,Krim-Linde,LINDE,Regensburger Straße,25,03625,1954.0,65,Charlottenburg-Wilmersdorf,2020-06-01 19:33:09.576578+00,50,150
_3y18nwx5f,13.411129999999998,52.54266,Hainbuche,HAINBUCHE,undefined,undefined,70553,1985.0,34,Pankow,2020-05-23 16:03:33.473091+00,25,75
_3yha5e1es,13.419479999999998,52.487680000000005,Linde,LINDE,Jahnstraße,undefined,02222,1982.0,37,Friedrichshain-Kreuzberg,2020-05-21 06:18:16.540057+00,25,75
_3yikiupq2,13.375729999999999,52.539519999999996,Kleinkronige Winter-Linde,LINDE,Neue Hochstraße,7,373530,2010.0,9,Mitte,2020-06-01 17:11:53.828383+00,10,10
_3z3ynlqvz,13.294170000000001,52.49475,Robinie,ROBINIE,Halberstädter Straße,6,01800,1965.0,54,Charlottenburg-Wilmersdorf,2020-05-22 07:22:37.392529+00,5,5
_402n7hmqr,13.34919,52.548869999999994,Spitz-Ahorn,AHORN,Seestraße,34,30585,1969.0,50,Mitte,2020-08-13 11:53:35.062005+00,10,80
_40pzt5ltx,13.32068,52.48189,Kugel-Ahorn,AHORN,Hildegardstraße,17A,01998,1981.0,38,Charlottenburg-Wilmersdorf,2020-05-31 15:59:14.546044+00,5,10
_40tw26x63,13.281939999999999,52.44035,Japanischer Schnurbaum,undefined,Mörchinger Straße,22,3102,1955.0,64,Steglitz-Zehlendorf,2020-06-29 14:10:40.534022+00,5,5
_40umt27vx,13.330639999999999,52.45618,Winter-Linde,LINDE,Südendstraße,53,4377,1984.0,35,Steglitz-Zehlendorf,2020-07-30 13:59:37.111436+00,10,70
_40xqvgsdl,13.32674,52.42729,Spitz-Ahorn,AHORN,Oberhofer Weg,1,003285,1970.0,49,Steglitz-Zehlendorf,2020-06-03 12:30:47.866171+00,50,100
_4125tz4xa,13.297939999999999,52.49516,Spitz-Ahorn,AHORN,Schweidnitzer Straße,17,04082,1955.0,64,Charlottenburg-Wilmersdorf,2020-06-28 17:23:47.912043+00,10,20
_41czrk84s,13.3424,52.52814,Baum-Hasel,HASEL,Bugenhagenstraße,6,221020,1990.0,29,Mitte,2020-05-21 21:41:30.183846+00,5,70
_41ijijtnd,13.231329999999998,52.42869,Echte Mehlbeere,MEHLBEERE,Kramstaweg,16,002574,2018.0,1,Steglitz-Zehlendorf,2020-06-22 15:50:25.84154+00,25,75
_41rvcv2u5,13.322510000000001,52.465740000000004,Holländische Linde,LINDE,Gutsmuthsstraße,15,1761,1930.0,89,Steglitz-Zehlendorf,2020-06-21 12:19:14.87525+00,25,25
_429i74ic0,13.3152,52.46906,Kleinkronige Winter-Linde,LINDE,Laubenheimer Straße,22,02714,2018.0,1,Charlottenburg-Wilmersdorf,2020-06-01 07:07:45.650449+00,10,20
_42i58okp2,13.288110000000001,52.43091999999999,Spitz-Ahorn,AHORN,Carstennstraße,9,000844,1950.0,69,Steglitz-Zehlendorf,2020-05-21 07:58:38.039537+00,50,100
_42x311ci5,13.29406,52.51599,Säulenförmiger Spitz-Ahorn,AHORN,Nehringstraße,27,03191,2009.0,10,Charlottenburg-Wilmersdorf,2020-08-18 18:50:42.601019+00,25,95
_431j0l4v3,13.433979999999998,52.545759999999994,Hainbuche,HAINBUCHE,Gubitzstraße,undefined,41126,1983.0,36,Pankow,2020-05-24 16:36:30.199225+00,10,20
_43b83ye6m,13.35785,52.55191,Amerikanische Linde,LINDE,Liebenwalder Straße,34,30618,1984.0,35,Mitte,2020-05-30 17:19:38.149575+00,10,40
_43dd3p8al,13.36909,52.48995,Silber-Linde,LINDE,Hochkirchstraße,14,17678,1975.0,44,Tempelhof-Schöneberg,2020-08-16 20:09:03.317706+00,10,10
_43ok5lcf6,13.4108,52.542590000000004,Spitz-Ahorn,AHORN,undefined,undefined,70553,1908.0,111,Pankow,2020-06-03 18:14:02.564464+00,25,25
_43tsbcl4t,13.14826,52.53955,Winter-Linde,LINDE,Torweg,54,04518-Str,1980.0,39,Spandau,2020-07-26 17:25:57.532177+00,50,75
_443apf7jv,13.46318,52.51464,Echter Rotdorn,WEIßDORN,Mainzer Straße,undefined,MAINZER,1994.0,25,Friedrichshain-Kreuzberg,2020-07-28 16:57:50.039226+00,10,20
_44drzil02,13.396989999999999,52.53426999999999,Gemeine Rosskastanie,ROSSKASTANIE,undefined,undefined,161200,2014.0,5,Mitte,2020-05-27 12:44:48.612095+00,25,235
_44p14zad2,13.43781,52.53425,Hainbuche,HAINBUCHE,Bötzowstraße,undefined,40403,1988.0,31,Pankow,2020-05-22 09:37:21.116125+00,50,135
_44vthz2ia,13.29964,52.44368000000001,Kugel-Winter-Linde 'Green Globe',LINDE,Gardeschützenweg,119,1473,2013.0,6,Steglitz-Zehlendorf,2020-05-21 08:42:44.976967+00,10,290
_45n91hfhc,13.418829999999998,52.41146,Spitz-Ahorn,AHORN,Töpchiner Weg,104,4509,1987.0,32,Neukölln,2020-08-21 09:42:52.022204+00,50,100
_45on2w3qw,13.38916,52.484609999999996,Ahornblättrige Platane,PLATANE,Gontermannstraße,1,879,1983.0,36,Tempelhof-Schöneberg,2020-05-20 13:28:08.576734+00,25,25
_45ur0a3gi,13.3526,52.548230000000004,Baum-Hasel,HASEL,Genter Straße,58,30599,1994.0,25,Mitte,2020-07-02 16:01:02.859983+00,5,5
_4628rs6wh,13.420129999999999,52.57291,Linde,LINDE,Damerowstraße,undefined,40546,2004.0,15,Pankow,2020-05-19 19:00:11.295378+00,25,25
_463i6i373,13.45077,52.47173000000001,Winter-Linde,LINDE,Braunschweiger Straße,30,710,1983.0,36,Neukölln,2020-05-20 12:07:31.858734+00,10,10
_465m0ifyi,13.48254,52.489,Ahornblättrige Platane,PLATANE,undefined,undefined,GRTUN13,1869.0,150,Friedrichshain-Kreuzberg,2020-06-12 18:45:58.626389+00,10,10
_46cwdsqfw,13.43774,52.543980000000005,Kobushi-Magnolie,MAGNOLIE,Naugarder Straße,undefined,42051,1998.0,21,Pankow,2020-05-23 12:55:39.512299+00,10,165
_46en3d2kl,13.31634,52.49409,Silber-Linde,LINDE,Wittelsbacherstraße,3,04922,1915.0,104,Charlottenburg-Wilmersdorf,2020-05-20 16:04:46.990169+00,50,150
_46yyqy15h,13.434289999999999,52.48519,Winter-Linde,LINDE,Weichselstraße,12,4755,1972.0,47,Neukölln,2020-05-22 16:05:15.868727+00,5,50
_476eifu91,13.4276,52.49266,Kleinkronige Winter-Linde,LINDE,Sanderstraße,17,3881,2016.0,3,Neukölln,2020-05-20 13:39:15.238139+00,25,760
_47jua6sqn,13.27943,52.5916,Zierapfel 'Eleyi',APFEL,undefined,undefined,00755,2000.0,19,Reinickendorf,2020-07-23 09:31:19.318917+00,50,100
_47krz4zas,13.196579999999999,52.5235,Winter-Linde,LINDE,Jägerstraße,45,02213-Str,1976.0,43,Spandau,2020-05-19 11:01:29.307622+00,25,25
_47ovnzf8x,13.445979999999999,52.49214,Kleinkronige Winter-Linde,LINDE,Karl-Kunger-Straße,undefined,10144,1999.0,20,Treptow-Köpenick,2020-05-21 17:30:42.890169+00,50,75
_47yctpx33,13.30905,52.50265,Schmalkroninger Berg-Ahorn,AHORN,Giesebrechtstraße,19,01553,2002.0,17,Charlottenburg-Wilmersdorf,2020-05-23 15:37:12.865236+00,25,125
_481u9km4j,13.4527,52.52701999999999,Rot-/Weißdorn,WEIßDORN,Hausburgstraße,undefined,HAUSBURG,2018.0,1,Friedrichshain-Kreuzberg,2020-07-20 19:16:05.925859+00,10,20
_482ac72qd,13.449929999999998,52.4484,"Berg-Ahorn, Weiss-Ahorn",AHORN,Fritz-Reuter-Allee,46,1414,2012.0,7,Neukölln,2020-05-21 09:37:06.263847+00,25,25
_482v9ca7v,13.52808,52.48432,Spitz-Ahorn 'Cleveland',AHORN,Godesberger Straße,undefined,31SB09,1998.0,21,Lichtenberg,2020-11-17 07:46:49.375695+00,50,50
_484l3xyvy,13.431529999999999,52.501259999999995,Linde,LINDE,Eisenbahnstraße,undefined,01107,1972.0,47,Friedrichshain-Kreuzberg,2020-07-08 16:50:43.88245+00,50,50
_487t7kd93,13.42676,52.53406999999999,Winter-Linde,LINDE,Marienburger Straße,undefined,41891,1996.0,23,Pankow,2020-05-24 08:36:24.978223+00,5,5
_48k97g1fx,13.40276,52.564409999999995,Winter-Linde,LINDE,Heynstraße,undefined,41301,1999.0,20,Pankow,2020-08-16 10:33:19.398308+00,50,100
_48qhl3mrp,13.24055,52.44259,Winter-Linde,LINDE,Fischerhüttenstraße,89,1286,1960.0,59,Steglitz-Zehlendorf,2020-07-02 12:46:15.153293+00,50,50
_49948vrk3,13.3492,52.44576,Sommer-Linde,LINDE,Liebenowzeile,16-16c,2785,1983.0,36,Steglitz-Zehlendorf,2020-06-17 18:23:50.807987+00,5,5
_49lxpm9s0,13.46844,52.517669999999995,Pflaumenblättriger Weiss-Dorn,WEIßDORN,undefined,undefined,60114,2013.0,6,Friedrichshain-Kreuzberg,2020-05-21 22:32:01.077545+00,10,220
_4aandygms,13.392129999999998,52.49016999999999,Chinesische Wild-Birne,BIRNE,Solmsstraße,undefined,04212,2008.0,11,Friedrichshain-Kreuzberg,2020-05-24 12:09:28.695913+00,50,300
_4aaz3ghx5,13.324520000000001,52.47557,Säulen-Birke,BIRKE,Südwestkorso,70,17736,2015.0,4,Tempelhof-Schöneberg,2020-06-10 15:20:01.76286+00,50,125
_4ad5y165a,13.46408,52.5184,"Berg-Ahorn, Weiss-Ahorn",AHORN,undefined,undefined,60114,1979.0,40,Friedrichshain-Kreuzberg,2020-06-27 20:30:17.511264+00,10,310
_4be8bz92r,13.43015,52.50054,Robinie,ROBINIE,undefined,undefined,60035,1969.0,50,Friedrichshain-Kreuzberg,2020-07-12 12:19:13.196644+00,50,50
_4c8a85g61,13.35849,52.53312,Echter Rotdorn,WEIßDORN,Kruppstraße,2,223020,1995.0,24,Mitte,2020-08-03 08:37:33.355606+00,10,10
_4cbbr26r6,13.32981,52.60746999999999,Gleditschie 'Skyline',GLEDITSCHIE,Titiseestraße,39,05351-Str,2013.0,6,Reinickendorf,2020-06-16 17:34:59.690596+00,50,100
_4coq4bmuk,13.36025,52.545609999999996,"Berg-Ahorn, Weiss-Ahorn",AHORN,Müllerstraße,156,30583,1988.0,31,Mitte,2020-08-16 11:22:54.793352+00,50,60
_4cswan6bt,13.4689,52.49572,Feldahorn 'Elsrijk',AHORN,Krachtstraße,undefined,KRACHTST,2002.0,17,Friedrichshain-Kreuzberg,2020-06-01 17:14:14.22167+00,5,5
_4dkvsgo03,13.388379999999998,52.530559999999994,Weidenblättrige Birne,BIRNE,Schlegelstraße,15,191600,1998.0,21,Mitte,2020-05-22 18:05:52.730545+00,50,150
_4dmgndsy2,13.39706,52.49326,Rot-/Weißdorn,WEIßDORN,Mittenwalder Straße,undefined,03095,1984.0,35,Friedrichshain-Kreuzberg,2020-06-28 12:19:42.348332+00,50,50
_4do21b0uw,13.272129999999999,52.43861,"Sommer-Eiche, Stiel-Eiche",EICHE,Berliner Straße,45a,510,2016.0,3,Steglitz-Zehlendorf,2020-06-01 20:28:55.455313+00,10,70
_4dodplh7d,13.330789999999999,52.42926,Resista Ulme 'Regal',ULME,Lankwitzer Straße,8,2707,2016.0,3,Steglitz-Zehlendorf,2020-06-02 06:05:04.312354+00,25,895
_4e1hwzavn,13.41816,52.563390000000005,Winter-Linde 'Greenspire',LINDE,Binzstraße,undefined,40333,2015.0,4,Pankow,2020-06-24 10:44:19.731531+00,10,20
_4e5zan7dl,13.3261,52.48104,Säulenförmiger Spitz-Ahorn,AHORN,Livländische Straße,19,02827,1991.0,28,Charlottenburg-Wilmersdorf,2020-08-21 18:35:36.603234+00,25,25
_4f82j2adv,13.42115,52.54679,Trauben-Kirsche 'Watereri',undefined,Lychener Straße,undefined,41856,1999.0,20,Pankow,2020-06-03 04:05:20.382684+00,50,75
_4fbgxdjse,13.43409,52.49966,Robinie,ROBINIE,Skalitzer Straße,undefined,04193,1987.0,32,Friedrichshain-Kreuzberg,2020-08-24 10:41:35.74169+00,25,25
_4flt0hfyb,13.342039999999999,52.469030000000004,Ahornblättrige Platane,PLATANE,Cranachstraße,3,17654,2008.0,11,Tempelhof-Schöneberg,2020-08-08 21:21:23.597016+00,50,100
_4fmuuscrg,13.34201,52.41959,Winter-Linde,LINDE,Apoldaer Straße,23-25,000323,1989.0,30,Steglitz-Zehlendorf,2020-08-11 12:47:41.127955+00,10,20
_4fs8sksb1,13.42105,52.47954,Winter-Linde,LINDE,Mahlower Straße,21,2916,1960.0,59,Neukölln,2020-05-29 17:01:17.009302+00,50,50
_4ftv756n3,13.446760000000001,52.52336,Schwedische Mehlbeere,MEHLBEERE,Wilhelm-Stolze-Straße,13,43576,2017.0,2,Friedrichshain-Kreuzberg,2020-08-01 06:47:37.755578+00,25,25
_4fuas9cmi,13.46601,52.51804,Krim-Linde,LINDE,Samariterstraße,undefined,SAMARITE,1972.0,47,Friedrichshain-Kreuzberg,2020-05-21 22:18:40.10317+00,25,360
_4g9y49tnb,13.2523,52.42675,Trauben-Kirsche,undefined,Grenzpfad,16,001681,2016.0,3,Steglitz-Zehlendorf,2020-08-12 14:20:20.122651+00,25,100
_4gl4s8rcw,13.28529,52.57301,Winter-Linde,LINDE,Ascheberger Weg,5,00352,1975.0,44,Reinickendorf,2020-07-19 13:30:54.130192+00,25,25
_4grewfjl8,13.293339999999999,52.49503000000001,Spitz-Ahorn,AHORN,Seesener Straße,24,04118,2002.0,17,Charlottenburg-Wilmersdorf,2020-08-09 10:17:14.180153+00,25,35
_4gx2wi6f6,13.42994,52.48515,Winter-Linde,LINDE,Donaustraße,3,1000,1978.0,41,Neukölln,2020-05-21 19:06:12.485311+00,25,270
_4ha1k5yuw,13.40799,52.53979,Himalaja-Birke,BIRKE,undefined,undefined,79441,2013.0,6,Pankow,2020-08-14 15:37:08.379264+00,50,100
_4hi0eyzml,13.47998,52.50382,Echte Kugel-Akazie,ROBINIE,Geusenstraße,undefined,23SB01,1982.0,37,Lichtenberg,2020-05-20 11:27:08.346148+00,25,100
_4i1ldyxly,13.262089999999999,52.428000000000004,Buche,BUCHE,undefined,undefined,101495.0,,undefined,Steglitz-Zehlendorf,2021-04-25 13:10:08.929688+00,25,35
_4i3mzpdqv,13.42205,52.476209999999995,Hainbuche,HAINBUCHE,Schillerpromenade,9,3946,1961.0,58,Neukölln,2020-05-19 16:51:53.597289+00,10,40
_4ic1t33cv,13.459629999999999,52.52247,Spitz-Ahorn 'Deborah',AHORN,undefined,undefined,80101,2007.0,12,Pankow,2020-05-31 12:55:38.115656+00,10,10
_4ihh1zngo,13.334629999999999,52.52101,Gemeine Rosskastanie,ROSSKASTANIE,Levetzowstraße,19,243301,1975.0,44,Mitte,2020-07-09 10:35:40.667042+00,50,50
_4im65l44a,13.3818,52.43415,Chinesische Wild-Birne,BIRNE,Körtingstraße,61,2522,1999.0,20,Tempelhof-Schöneberg,2020-09-10 18:38:18.798386+00,50,50
_4iv0019ri,13.447339999999999,52.528059999999996,Spitz-Ahorn,AHORN,Cotheniusstraße,undefined,40530,1985.0,34,Pankow,2020-06-03 23:03:22.730234+00,10,25
_4j4c63u0d,13.389479999999999,52.56399999999999,Sommer-Linde,LINDE,Gottschalkstraße,6,369400,1993.0,26,Mitte,2020-09-22 13:04:40.954202+00,50,50
_4jh1k2qnu,13.454170000000001,52.522369999999995,Winter-Linde,LINDE,Ebertystraße,undefined,EBERTYST,1983.0,36,Friedrichshain-Kreuzberg,2020-06-03 12:37:48.440779+00,50,50
_4jp9tffkt,13.320879999999999,52.47736,Robinie,ROBINIE,Varziner Straße,22,17801,1965.0,54,Tempelhof-Schöneberg,2020-07-21 06:32:54.237384+00,50,100
_4jrj2krnd,13.34123,52.5302,Baum-Hasel,HASEL,Wilhelmshavener Straße,57,220720,1990.0,29,Mitte,2020-05-21 13:28:15.201015+00,50,450
_4jrwlfs5h,13.195079999999999,52.5243,Spitz-Ahorn,AHORN,Földerichstraße,68,01321-Str,1937.0,82,Spandau,2021-04-28 19:48:36.555048+00,25,25
_4k2ouxe7j,13.43588,52.55506,Holländische Linde,LINDE,Charlottenburger Straße,undefined,40505,1948.0,71,Pankow,2020-05-30 07:44:33.412581+00,25,75
_4k4ehy94f,13.44995,52.4479,"Berg-Ahorn, Weiss-Ahorn",AHORN,Fritz-Reuter-Allee,48,1414,2012.0,7,Neukölln,2020-05-21 09:43:07.246695+00,25,25
_4k9128stl,13.488929999999998,52.538340000000005,"Oxelbeere, Schwedische Mehlbeere",MEHLBEERE,Große-Leege-Straße,undefined,14SB02,2012.0,7,Lichtenberg,2020-05-21 05:54:07.710436+00,25,190
_4kadtgl88,13.274270000000001,52.63564,Hainbuche,HAINBUCHE,Münchener Straße,32,03151-Str,2016.0,3,Reinickendorf,2020-09-08 19:53:56.393043+00,25,25
_4kcsicwf0,13.438579999999998,52.462430000000005,Spitz-Ahorn,AHORN,Wederstraße,55,4745,1999.0,20,Neukölln,2020-06-11 13:01:48.601911+00,5,50
_4kgv947b2,13.31463,52.49561,Winter-Linde 'Greenspire',LINDE,Zähringerstraße,36,04983,2002.0,17,Charlottenburg-Wilmersdorf,2020-08-08 09:16:59.391454+00,10,455
_4kpjddghc,13.33089,52.463930000000005,Hainbuche,HAINBUCHE,Schöneberger Straße,7a,003999,2009.0,10,Steglitz-Zehlendorf,2020-05-26 20:36:49.29944+00,10,10
_4kskv5f18,13.330589999999999,52.42921,Spitz-Ahorn,AHORN,Lankwitzer Straße,7,,1982.0,37,Steglitz-Zehlendorf,2020-08-13 08:28:05.05626+00,25,125
_4kuqgrjn5,13.404710000000001,52.548590000000004,Rot-Ahorn,AHORN,Ystader Straße,undefined,43635,2012.0,7,Pankow,2020-06-04 15:39:21.64997+00,25,65
_4l6tcxacc,13.267920000000002,52.42866,"Berg-Ahorn, Weiss-Ahorn",AHORN,Seehofstraße,56,4111,1960.0,59,Steglitz-Zehlendorf,2020-05-22 15:36:22.619786+00,50,350
_4l8hyr0do,13.314279999999998,52.4943,Amerikanische Linde,LINDE,Wittelsbacherstraße,30,04922,1986.0,33,Charlottenburg-Wilmersdorf,2020-08-07 10:51:37.613237+00,10,35
_4l9nrstgr,13.21221,52.56009,Winter-Linde,LINDE,Chamissostraße,28,00853-Str,1987.0,32,Spandau,2020-06-04 19:24:48.444455+00,25,25
_4lf4eripp,13.469320000000002,52.5175,"Berg-Ahorn, Weiss-Ahorn",AHORN,undefined,undefined,60114,1980.0,39,Friedrichshain-Kreuzberg,2020-05-22 05:29:48.428172+00,10,160
_4lglj35mr,13.37977,52.46856999999999,Winter-Linde,LINDE,Ringbahnstraße,undefined,3717,1966.0,53,Tempelhof-Schöneberg,2021-02-24 11:42:52.922159+00,5,5
_4lh6ezbct,13.47061,52.42329,"Sommer-Eiche, Stiel-Eiche",EICHE,Friedrich-Kayßler-Weg,0,1392,1958.0,61,Neukölln,2020-07-11 16:08:22.927409+00,10,360
_4m1t51tv2,13.263420000000002,52.5145,Kaiser-Linde,LINDE,Reichsstraße,88,03647,1990.0,29,Charlottenburg-Wilmersdorf,2020-08-19 17:29:02.736387+00,25,25
_4mbqp5k2u,13.351029999999998,52.489169999999994,Eingriffliger Weissdorn,WEIßDORN,Klixstraße,2,17783,1998.0,21,Tempelhof-Schöneberg,2020-08-15 08:50:33.85535+00,5,5
_4mxyuiyms,13.30887,52.50277,Ahornblättrige Platane,PLATANE,Giesebrechtstraße,20,01553,1961.0,58,Charlottenburg-Wilmersdorf,2020-05-21 18:41:09.570469+00,25,175
_4ndfpi7or,13.3163,52.47741,Winter-Linde 'Greenspire',LINDE,Hanauer Straße,72,01818,2011.0,8,Charlottenburg-Wilmersdorf,2020-07-19 19:44:34.906233+00,50,100
_4nvb68id6,13.43271,52.53006,Japanische Zierkirsche 'Kanzan',undefined,Käthe-Niederkirchner-Straße,undefined,41804,1988.0,31,Pankow,2020-08-16 17:35:46.466282+00,25,25
_4pky7vps0,13.45539,52.507830000000006,Dreidorniger Lederhülsenbaum,GLEDITSCHIE,Revaler Straße,15,REVALER,2016.0,3,Friedrichshain-Kreuzberg,2020-07-14 20:09:34.617168+00,25,25
_4qbdlivfa,13.31874,52.4689,"Berg-Ahorn, Weiss-Ahorn",AHORN,Ahrweilerstraße,16,00035,1955.0,64,Charlottenburg-Wilmersdorf,2020-08-16 08:20:11.243462+00,10,15
_4qbe0m8xy,13.469120000000002,52.517540000000004,Scheinakazie 'Bessoniana',ROBINIE,undefined,undefined,60114,1995.0,24,Friedrichshain-Kreuzberg,2020-05-22 05:23:35.997828+00,10,160
_4qf4w5bf0,13.389679999999998,52.56391,Sommer-Linde,LINDE,Gottschalkstraße,5,369400,1993.0,26,Mitte,2020-09-22 13:04:52.951582+00,50,50
_4qg9pmu06,13.39275,52.4858,Baum-Hasel,HASEL,Schwiebusser Straße,undefined,04092,1986.0,33,Friedrichshain-Kreuzberg,2020-05-26 17:52:48.701108+00,10,35
_4ql9ynhrr,13.4433,52.53304,Ahornblättrige Platane,PLATANE,Kniprodestraße,undefined,05738,1996.0,23,Pankow,2020-05-26 14:14:35.09809+00,5,80
_4r9m22amr,13.485389999999999,52.523590000000006,Kleinkronige Winter-Linde,LINDE,Vulkanstraße,undefined,18SB11,2007.0,12,Lichtenberg,2020-06-25 19:51:34.912744+00,25,50
_4rmtzg7ef,13.23145,52.61991,Winter-Linde,LINDE,Rosenorter Steig,24,03781-Str,2011.0,8,Reinickendorf,2020-05-26 10:01:48.882409+00,25,460
_4ryqepjva,13.3225,52.48791,Säulenförmiger Spitz-Ahorn,AHORN,Uhlandstraße,90,04581,2007.0,12,Charlottenburg-Wilmersdorf,2020-09-27 12:00:28.156593+00,50,50
_4s007h0nc,13.30206,52.4334,Gewöhnliche Hopfenbuche,HOPFENBUCHE,Potsdamer Straße,3,3513,2019.0,0,Steglitz-Zehlendorf,2020-08-14 06:57:39.08466+00,5,5
_4stxcgfin,13.4244,52.533,Baum-Hasel,HASEL,Winsstraße,undefined,43588,1993.0,26,Pankow,2020-05-20 12:01:25.923097+00,50,50
_4tbhoxf43,13.39776,52.5371,Feld-Ahorn,AHORN,Rheinsberger Straße,12,189400,2014.0,5,Mitte,2020-06-01 09:08:48.727598+00,50,100
_4u666thpk,13.297620000000002,52.51125,Winter-Linde,LINDE,Schloßstraße,28,03973,1979.0,40,Charlottenburg-Wilmersdorf,2020-06-14 11:26:36.781099+00,25,420
_4u6gebn36,13.397960000000001,52.3929,Winter-Linde,LINDE,Steinstraße,17,4312,1966.0,53,Tempelhof-Schöneberg,2020-08-15 13:22:43.449345+00,10,15
_4u8b8bphl,13.444939999999999,52.4458,"Süss-Kirsche,Vogel-Kirsche",undefined,Parchimer Allee,104,3395,2005.0,14,Neukölln,2020-05-21 09:50:31.791146+00,25,25
_4unf7eyi6,13.35281,52.453680000000006,Winter-Linde,LINDE,Sembritzkistraße,31,4138,1955.0,64,Steglitz-Zehlendorf,2020-05-29 20:36:12.747467+00,25,25
_4uy1s7avd,13.33305,52.57447,Baum-Hasel,HASEL,Schulenburgstraße,15,04046,2008.0,11,Reinickendorf,2020-08-24 15:34:15.986782+00,50,50
_4uyob3rkv,13.31105,52.50727,Winter-Linde,LINDE,Weimarer Straße,17-18,04760,1960.0,59,Charlottenburg-Wilmersdorf,2020-06-01 18:33:48.503423+00,50,200
_4vaydh3a2,13.39984,52.49024,Baum-Hasel,HASEL,Gneisenaustraße,undefined,01588,1980.0,39,Friedrichshain-Kreuzberg,2020-06-01 19:22:30.477447+00,50,50
_4vif9mlry,13.42939,52.5549,Winter-Linde,LINDE,Prenzlauer Promenade,undefined,42302WEI,2005.0,14,Pankow,2020-05-19 21:55:30.204728+00,10,80
_4vkey0hib,13.348460000000001,52.54445,Silber-Ahorn,AHORN,Ostender Straße,27,363700,1950.0,69,Mitte,2020-05-21 12:11:10.428633+00,5,90
_4vo977g85,13.28912,52.488969999999995,Holländische Linde,LINDE,Lynarstraße,25,02902,1965.0,54,Charlottenburg-Wilmersdorf,2020-05-23 15:37:42.87915+00,25,25
_4w7g3yciy,13.455829999999999,52.52403,Rotblühende Rosskastanie,ROSSKASTANIE,Otto-Ostrowski-Straße,undefined,08703,2003.0,16,Pankow,2020-08-05 16:13:35.65671+00,10,10
_4w7xvqbsn,13.43554,52.49638,Linde,LINDE,Wiener Straße,undefined,04842,2014.0,5,Friedrichshain-Kreuzberg,2020-08-12 08:47:39.72787+00,50,100
_4wckhzait,13.342070000000001,52.468819999999994,Spitz-Ahorn,AHORN,Cranachstraße,63,17654,1989.0,30,Tempelhof-Schöneberg,2020-08-08 21:22:21.963725+00,50,100
_4wcvgcr10,13.63401,52.44751,Chinesische Wild-Birne,BIRNE,Müggelseedamm,undefined,110534,1985.0,34,Treptow-Köpenick,2020-05-20 08:53:45.205933+00,10,860
_4wd4qyqek,13.14923,52.53525,Winter-Linde,LINDE,Spandauer Straße,undefined,04236-Str,1959.0,60,Spandau,2020-06-02 05:04:37.641572+00,10,10
_4womn7c99,13.437920000000002,52.4665,Kleinkronige Winter-Linde,LINDE,Kranoldplatz,1,7045,2016.0,3,Neukölln,2020-08-12 23:52:44.458316+00,50,50
_4wqns9y10,13.43622,52.490919999999996,Ulme,ULME,Maybachufer,undefined,3021,2007.0,12,Neukölln,2020-06-02 06:34:03.383696+00,25,25
_4x5xy41mo,13.44594,52.540569999999995,Baum-Hasel,HASEL,undefined,undefined,70837,1990.0,29,Pankow,2020-05-27 12:12:14.672255+00,25,50
_4x6u9sc1j,13.38761,52.595530000000004,Eiche,EICHE,undefined,undefined,00787,2000.0,19,Pankow,2020-08-17 19:09:10.506619+00,50,50
_4x9j2pr7u,13.451429999999998,52.502869999999994,Echter Rotdorn,WEIßDORN,Ehrenbergstraße,20,EHRENBER,1999.0,20,Friedrichshain-Kreuzberg,2020-08-13 15:14:48.487061+00,25,75
_4xjarkxfb,13.29921,52.50186,Birken-Pappel,PAPPEL,Sybelstraße,42,04392,1992.0,27,Charlottenburg-Wilmersdorf,2020-08-14 20:25:03.254477+00,10,10
